[
  {
    "ods_code": "E83003",
    "name": "Oakleigh Road Health Centre",
    "address": "280 OAKLEIGH ROAD NORTH, WHETSTONE, LONDON",
    "postcode": "N20 0DH",
    "phone": "020 83613638",
    "gpps_overall_pct": 79.6,
    "gpps_contact_pct": 70.4,
    "gpps_responses": 108,
    "gpps_pcn": "BARNET 2 PCN",
    "cqc_rating": "Good",
    "cqc_url": "http://www.cqc.org.uk/location/1-542243120",
    "lat": 51.625218,
    "lng": -0.158841
  },
  {
    "ods_code": "E83006",
    "name": "Greenfield Medical Centre",
    "address": "143-145 CRICKLEWOOD LANE, LONDON",
    "postcode": "NW2 1HS",
    "phone": "020 84505454",
    "gpps_overall_pct": 64.8,
    "gpps_contact_pct": 61.8,
    "gpps_responses": 89,
    "gpps_pcn": "BARNET 5 PCN",
    "cqc_rating": "Good",
    "cqc_url": "http://www.cqc.org.uk/location/1-552604632",
    "lat": 51.561018,
    "lng": -0.205699
  },
  {
    "ods_code": "E83009",
    "name": "PHGH Doctors",
    "address": "TEMPLE FORTUNE HEALTH CENTRE, 23 TEMPLE FORTUNE LANE, GOLDERS GREEN, LONDON",
    "postcode": "NW11 7TE",
    "phone": "020 82092400",
    "gpps_overall_pct": 72.8,
    "gpps_contact_pct": 74.3,
    "gpps_responses": 121,
    "gpps_pcn": "BARNET 6 PCN",
    "cqc_rating": "Good",
    "cqc_url": "http://www.cqc.org.uk/location/1-567834277",
    "lat": 51.581104,
    "lng": -0.197821,
    "official_name": "Phgh Doctors"
  },
  {
    "ods_code": "E83010",
    "name": "The Speedwell Practice",
    "address": "THE HEALTH CENTRE, TORRINGTON PARK, NORTH FINCHLEY, LONDON",
    "postcode": "N12 9SS",
    "phone": "020 84457587",
    "gpps_overall_pct": 74.6,
    "gpps_contact_pct": 71.6,
    "gpps_responses": 118,
    "gpps_pcn": "BARNET 2 PCN",
    "cqc_rating": "Good",
    "cqc_url": "http://www.cqc.org.uk/location/1-567811283",
    "lat": 51.617033,
    "lng": -0.175438
  },
  {
    "ods_code": "E83011",
    "name": "The Everglade Medical Practice",
    "address": "THE CONCOURSE, GRAHAME PARK ESTATE, LONDON",
    "postcode": "NW9 5XT",
    "phone": "020 84328641",
    "gpps_overall_pct": 66.1,
    "gpps_contact_pct": 56.8,
    "gpps_responses": 104,
    "gpps_pcn": "BARNET 1W PCN",
    "cqc_rating": "Good",
    "cqc_url": "http://www.cqc.org.uk/location/1-2071557621",
    "lat": 51.601581,
    "lng": -0.244185
  },
  {
    "ods_code": "E83013",
    "name": "Cornwall House Surgery",
    "address": "TORRINGTON PARK HEALTH CENTRE, 16 TORRINGTON PARK, LONDON",
    "postcode": "N12 9SS",
    "phone": "020 83461976",
    "gpps_overall_pct": 55.4,
    "gpps_contact_pct": 45.1,
    "gpps_responses": 110,
    "gpps_pcn": "BARNET 3 PCN",
    "lat": 51.617033,
    "lng": -0.175438
  },
  {
    "ods_code": "E83016",
    "name": "Millway Medical Practice",
    "address": "2 HARTLEY AVENUE, MILL HILL, LONDON",
    "postcode": "NW7 2HX",
    "phone": "020 89590888",
    "gpps_overall_pct": 70.8,
    "gpps_contact_pct": 69.3,
    "gpps_responses": 97,
    "gpps_pcn": "BARNET 4 PCN",
    "cqc_rating": "Good",
    "cqc_url": "http://www.cqc.org.uk/location/1-540168119",
    "lat": 51.614988,
    "lng": -0.243567
  },
  {
    "ods_code": "E83020",
    "name": "St. Georges Medical Centre",
    "address": "7 SUNNINGFIELDS ROAD, HENDON, LONDON",
    "postcode": "NW4 4QR",
    "phone": "020 82026232",
    "gpps_overall_pct": 63.5,
    "gpps_contact_pct": 48.2,
    "gpps_responses": 131,
    "gpps_pcn": "BARNET 5 PCN",
    "cqc_rating": "Good",
    "cqc_url": "http://www.cqc.org.uk/location/1-539629350",
    "lat": 51.592732,
    "lng": -0.226161
  },
  {
    "ods_code": "E83021",
    "name": "Torrington Park Group Practice",
    "address": "TORRINGTON PARK HEALTH CENTRE, 16 TORRINGTON PARK, NORTH FINCHLEY, LONDON",
    "postcode": "N12 9SS",
    "phone": "020 36675030",
    "gpps_overall_pct": 62.3,
    "gpps_contact_pct": 57.2,
    "gpps_responses": 103,
    "gpps_pcn": "BARNET 2 PCN",
    "cqc_rating": "Good",
    "cqc_url": "http://www.cqc.org.uk/location/1-547957026",
    "lat": 51.617033,
    "lng": -0.175438
  },
  {
    "ods_code": "E83024",
    "name": "St Andrews Medical Practice.",
    "address": "50 OAKLEIGH ROAD NORTH, WHETSTONE, LONDON",
    "postcode": "N20 9EX",
    "phone": "020 84450475",
    "gpps_overall_pct": 53.9,
    "gpps_contact_pct": 42.3,
    "gpps_responses": 117,
    "gpps_pcn": "BARNET 2 PCN",
    "cqc_rating": "Good",
    "cqc_url": "http://www.cqc.org.uk/location/1-540261911",
    "lat": 51.630141,
    "lng": -0.172354
  },
  {
    "ods_code": "E83025",
    "name": "Pennine Drive Practice",
    "address": "8 PENNINE DRIVE, HENDON, LONDON",
    "postcode": "NW2 1PA",
    "phone": "020 84559977",
    "gpps_overall_pct": 67.1,
    "gpps_contact_pct": 68.7,
    "gpps_responses": 107,
    "gpps_pcn": "BARNET 5 PCN",
    "cqc_rating": "Requires improvement",
    "cqc_url": "http://www.cqc.org.uk/location/1-540304390",
    "lat": 51.568512,
    "lng": -0.208795
  },
  {
    "ods_code": "E83027",
    "name": "The Practice at 188",
    "address": "188 GOLDERS GREEN ROAD, GOLDERS GREEN, LONDON",
    "postcode": "NW11 9AY",
    "phone": "02082 986498",
    "gpps_overall_pct": 60.9,
    "gpps_contact_pct": 54.3,
    "gpps_responses": 124,
    "gpps_pcn": "BARNET 6 PCN",
    "cqc_rating": "Good",
    "cqc_url": "http://www.cqc.org.uk/location/1-2464509211",
    "lat": 51.576425,
    "lng": -0.204644,
    "official_name": "The Practice At 188"
  },
  {
    "ods_code": "E83034",
    "name": "Colney Hatch Lane Surgery",
    "address": "192 COLNEY HATCH LANE, MUSWELL HILL, LONDON",
    "postcode": "N10 1ET",
    "phone": "020 88835555",
    "gpps_overall_pct": 65.2,
    "gpps_contact_pct": 63.2,
    "gpps_responses": 101,
    "gpps_pcn": "BARNET 2 PCN",
    "cqc_rating": "Good",
    "cqc_url": "http://www.cqc.org.uk/location/1-13841874235",
    "lat": 51.600571,
    "lng": -0.147478
  },
  {
    "ods_code": "E83039",
    "name": "Ravenscroft Medical Centre",
    "address": "166-168 GOLDERS GREEN ROAD, GOLDERS GREEN, LONDON",
    "postcode": "NW11 8BB",
    "phone": "020 84552477",
    "gpps_overall_pct": 80.6,
    "gpps_contact_pct": 77.1,
    "gpps_responses": 93,
    "gpps_pcn": "BARNET 5 PCN",
    "cqc_rating": "Requires improvement",
    "cqc_url": "http://www.cqc.org.uk/location/1-13904370095",
    "lat": 51.575317,
    "lng": -0.202769
  },
  {
    "ods_code": "E83041",
    "name": "Wakemans Hill Surgery",
    "address": "1 WAKEMANS HILL AVENUE, LONDON",
    "postcode": "NW9 0TA",
    "phone": "020 82052336",
    "gpps_overall_pct": 70.5,
    "gpps_contact_pct": 66.7,
    "gpps_responses": 108,
    "gpps_pcn": "BARNET 1D PCN",
    "cqc_rating": "Good",
    "cqc_url": "http://www.cqc.org.uk/location/1-1130789722",
    "lat": 51.58709,
    "lng": -0.254184
  },
  {
    "ods_code": "E83045",
    "name": "Friern Barnet Medical Centre",
    "address": "15-16 ST JOHNS VILLAS, FRIERN BARNET ROAD, LONDON",
    "postcode": "N11 3BU",
    "phone": "020 83681707",
    "gpps_overall_pct": 76.6,
    "gpps_contact_pct": 64.0,
    "gpps_responses": 109,
    "gpps_pcn": "BARNET 2 PCN",
    "cqc_rating": "Good",
    "cqc_url": "http://www.cqc.org.uk/location/1-540415616",
    "lat": 51.613266,
    "lng": -0.155902
  },
  {
    "ods_code": "E83046",
    "name": "Mulberry Medical Practice",
    "address": "3 SEFTON AVENUE, MILL HILL, LONDON",
    "postcode": "NW7 3QB",
    "phone": "020 89591868",
    "gpps_overall_pct": 58.2,
    "gpps_contact_pct": 51.2,
    "gpps_responses": 92,
    "gpps_pcn": "BARNET PCN 7",
    "cqc_rating": "Good",
    "cqc_url": "http://www.cqc.org.uk/location/1-540525527",
    "lat": 51.614864,
    "lng": -0.26001
  },
  {
    "ods_code": "E83600",
    "name": "Drs Adler and Rosenberg",
    "address": "682 FINCHLEY ROAD, GOLDERS GREEN, LONDON",
    "postcode": "NW11 7NP",
    "phone": "020 84559994",
    "gpps_overall_pct": 90.9,
    "gpps_contact_pct": 92.0,
    "gpps_responses": 104,
    "gpps_pcn": "BARNET 6 PCN",
    "cqc_rating": "Good",
    "cqc_url": "http://www.cqc.org.uk/location/1-571497178",
    "lat": 51.575077,
    "lng": -0.195938,
    "official_name": "Drs Adler And Rosenberg"
  },
  {
    "ods_code": "E83621",
    "name": "Brunswick Park Medical Practice",
    "address": "BRUNSWICK PARK ROAD, NEW SOUTHGATE, LONDON",
    "postcode": "N11 1EY",
    "phone": "020 83681568",
    "gpps_overall_pct": 80.8,
    "gpps_contact_pct": 70.1,
    "gpps_responses": 108,
    "gpps_pcn": "BARNET 2 PCN",
    "cqc_rating": "Good",
    "cqc_url": "http://www.cqc.org.uk/location/1-2120710416",
    "lat": 51.629302,
    "lng": -0.149212
  },
  {
    "ods_code": "E83622",
    "name": "Temple Fortune Medical Group",
    "address": "THE TEMPLE FORTUNE HEALTH CENTRE, 23 TEMPLE FORTUNE LANE, LONDON",
    "postcode": "NW11 7TE",
    "phone": "02082 092401",
    "gpps_overall_pct": 68.0,
    "gpps_contact_pct": 63.5,
    "gpps_responses": 111,
    "gpps_pcn": "BARNET 6 PCN",
    "cqc_rating": "Good",
    "cqc_url": "http://www.cqc.org.uk/location/1-1269890921",
    "lat": 51.581104,
    "lng": -0.197821
  },
  {
    "ods_code": "E83637",
    "name": "Colindale Medical Centre Lp",
    "address": "61 COLINDEEP LANE, COLINDALE, LONDON",
    "postcode": "NW9 6DJ",
    "phone": "020 82056798",
    "gpps_overall_pct": 68.8,
    "gpps_contact_pct": 59.7,
    "gpps_responses": 114,
    "gpps_pcn": "BARNET 1D PCN",
    "cqc_rating": "Good",
    "cqc_url": "http://www.cqc.org.uk/location/1-541089133",
    "lat": 51.591302,
    "lng": -0.249547
  },
  {
    "ods_code": "E83649",
    "name": "The Hodford Road Practice",
    "address": "73 HODFORD ROAD, LONDON",
    "postcode": "NW11 8NH",
    "phone": "020 89055234",
    "gpps_overall_pct": 85.6,
    "gpps_contact_pct": 81.2,
    "gpps_responses": 109,
    "gpps_pcn": "BARNET 6 PCN",
    "cqc_rating": "Good",
    "cqc_url": "http://www.cqc.org.uk/location/1-12694973438",
    "lat": 51.569041,
    "lng": -0.199293
  },
  {
    "ods_code": "E83653",
    "name": "The Phoenix Practice",
    "address": "7 BRAMPTON GROVE, HENDON, LONDON",
    "postcode": "NW4 4AE",
    "phone": "020 82029030",
    "gpps_overall_pct": 79.9,
    "gpps_contact_pct": 72.1,
    "gpps_responses": 97,
    "gpps_pcn": "BARNET 5 PCN",
    "cqc_rating": "Good",
    "cqc_url": "http://www.cqc.org.uk/location/1-541182889",
    "lat": 51.587321,
    "lng": -0.22337
  },
  {
    "ods_code": "E83666",
    "name": "Homeless Action in Barnet",
    "address": "36B WOODHOUSE ROAD, NORTH FINCHLEY, LONDON",
    "postcode": "N12 0RG",
    "phone": "020 84468400",
    "lat": 51.612153,
    "lng": -0.174449,
    "official_name": "Homeless Action In Barnet"
  },
  {
    "ods_code": "E84006",
    "name": "The Law Medical Group Practice",
    "address": "WROTTESLEY ROAD SURGERY, 9-11 WROTTESLEY ROAD, LONDON",
    "postcode": "NW10 5UY",
    "phone": "020 38188441",
    "gpps_overall_pct": 69.2,
    "gpps_contact_pct": 57.0,
    "gpps_responses": 115,
    "gpps_pcn": "BRENT WEST KWH PCN",
    "cqc_rating": "Good",
    "cqc_url": "http://www.cqc.org.uk/location/1-6083860111",
    "lat": 51.533872,
    "lng": -0.234291
  },
  {
    "ods_code": "E84011",
    "name": "St Andrews Medical Centre",
    "address": "GREENHILL PARK MEDICAL CENTRE, GREENHILL PARK, HARLESDEN, LONDON",
    "postcode": "NW10 9AR",
    "phone": "020 84597755",
    "gpps_overall_pct": 64.7,
    "gpps_contact_pct": 56.7,
    "gpps_responses": 87,
    "gpps_pcn": "BRENT SOUTH KWH PCN",
    "cqc_rating": "Good",
    "cqc_url": "http://www.cqc.org.uk/location/1-12149045849",
    "lat": 51.538404,
    "lng": -0.253511
  },
  {
    "ods_code": "E84012",
    "name": "MAPESBURY MEDICAL GROUP",
    "address": "WINDMILL MEDICAL PRACTICE, 65 SHOOT UP HILL, LONDON",
    "postcode": "NW2 3PS",
    "phone": "020 84527646",
    "gpps_overall_pct": 90.2,
    "gpps_contact_pct": 81.0,
    "gpps_responses": 126,
    "gpps_pcn": "KILBURN PARTNERSHIP PCN",
    "cqc_rating": "Good",
    "cqc_url": "http://www.cqc.org.uk/location/1-6645185270",
    "lat": 51.551499,
    "lng": -0.209448,
    "official_name": "Mapesbury Medical Group"
  },
  {
    "ods_code": "E84013",
    "name": "CHURCH END MEDICAL CENTRE",
    "address": "66 MAYO ROAD, WILLESDEN, LONDON",
    "postcode": "NW10 9HP",
    "phone": "020 89306262",
    "gpps_overall_pct": 85.7,
    "gpps_contact_pct": 76.1,
    "gpps_responses": 98,
    "gpps_pcn": "HARNESS SOUTH PCN",
    "cqc_rating": "Good",
    "cqc_url": "http://www.cqc.org.uk/location/1-14471393215",
    "lat": 51.547572,
    "lng": -0.253218,
    "official_name": "Church End Medical Centre"
  },
  {
    "ods_code": "E84015",
    "name": "Willow Tree Family Doctors",
    "address": "343B STAG LANE, LONDON",
    "postcode": "NW9 9AD",
    "phone": "020 82046464",
    "gpps_overall_pct": 62.6,
    "gpps_contact_pct": 54.1,
    "gpps_responses": 105,
    "gpps_pcn": "HARNESS NORTH PCN",
    "cqc_rating": "Requires improvement",
    "cqc_url": "http://www.cqc.org.uk/location/1-2555604675",
    "lat": 51.58934,
    "lng": -0.2652
  },
  {
    "ods_code": "E84021",
    "name": "The Willesden Medical Centre",
    "address": "144-150 HIGH ROAD, WILLESDEN, LONDON",
    "postcode": "NW10 2PT",
    "phone": "020 84595550",
    "gpps_overall_pct": 73.1,
    "gpps_contact_pct": 63.7,
    "gpps_responses": 118,
    "gpps_pcn": "BRENT SOUTH KWH PCN",
    "cqc_rating": "Good",
    "cqc_url": "http://www.cqc.org.uk/location/1-550649345",
    "lat": 51.547534,
    "lng": -0.233849
  },
  {
    "ods_code": "E84025",
    "name": "The Lonsdale Medical Centre",
    "address": "24 LONSDALE ROAD, LONDON",
    "postcode": "NW6 6RR",
    "phone": "020 73288331",
    "gpps_overall_pct": 70.1,
    "gpps_contact_pct": 57.8,
    "gpps_responses": 98,
    "gpps_pcn": "BRENT SOUTH KWH PCN",
    "cqc_rating": "Good",
    "cqc_url": "http://www.cqc.org.uk/location/1-542428515",
    "lat": 51.536899,
    "lng": -0.204456
  },
  {
    "ods_code": "E84028",
    "name": "The Stonebridge Practice",
    "address": "150 HILLTOP AVENUE, LONDON",
    "postcode": "NW10 8RY",
    "phone": "020 31887310",
    "gpps_overall_pct": 67.7,
    "gpps_contact_pct": 62.2,
    "gpps_responses": 112,
    "gpps_pcn": "HARNESS SOUTH PCN",
    "cqc_rating": "Good",
    "cqc_url": "http://www.cqc.org.uk/location/1-554013689",
    "lat": 51.542474,
    "lng": -0.26358
  },
  {
    "ods_code": "E84031",
    "name": "Brentfield Medical Centre",
    "address": "10 KINGFISHER WAY, LONDON",
    "postcode": "NW10 8TF",
    "phone": "020 88302396",
    "gpps_overall_pct": 80.3,
    "gpps_contact_pct": 71.4,
    "gpps_responses": 125,
    "gpps_pcn": "HARNESS SOUTH PCN",
    "cqc_rating": "Good",
    "cqc_url": "http://www.cqc.org.uk/location/1-542858918",
    "lat": 51.550634,
    "lng": -0.260211
  },
  {
    "ods_code": "E84036",
    "name": "Gladstone Medical Centre",
    "address": "5 DOLLIS HILL LANE, LONDON",
    "postcode": "NW2 6JH",
    "phone": "020 81029108",
    "gpps_overall_pct": 78.1,
    "gpps_contact_pct": 67.1,
    "gpps_responses": 103,
    "gpps_pcn": "BRENT SOUTH KWH PCN",
    "cqc_rating": "Good",
    "cqc_url": "http://www.cqc.org.uk/location/1-19677796544",
    "lat": 51.558733,
    "lng": -0.246096
  },
  {
    "ods_code": "E84042",
    "name": "Kilburn Park Medical Centre",
    "address": "6 MILE WALK, LONDON",
    "postcode": "NW6 5HB",
    "phone": "020 76242414",
    "gpps_overall_pct": 71.5,
    "gpps_contact_pct": 59.1,
    "gpps_responses": 88,
    "gpps_pcn": "KILBURN PARTNERSHIP PCN",
    "lat": 51.53263,
    "lng": -0.199347
  },
  {
    "ods_code": "E84048",
    "name": "The Fryent Way Surgery",
    "address": "22 FRYENT WAY, KINGSBURY, LONDON",
    "postcode": "NW9 9SB",
    "phone": "020 82069910",
    "gpps_overall_pct": 69.7,
    "gpps_contact_pct": 66.8,
    "gpps_responses": 83,
    "gpps_pcn": "BRENT NORTH KWH PCN",
    "cqc_rating": "Good",
    "cqc_url": "http://www.cqc.org.uk/location/1-5404874972",
    "lat": 51.582965,
    "lng": -0.280541
  },
  {
    "ods_code": "E84049",
    "name": "Brampton Health Centre",
    "address": "5 BRAMPTON ROAD, KINGSBURY, LONDON",
    "postcode": "NW9 9BY",
    "phone": "020 82046219",
    "gpps_overall_pct": 70.8,
    "gpps_contact_pct": 76.8,
    "gpps_responses": 129,
    "gpps_pcn": "BRENT NORTH KWH PCN",
    "cqc_rating": "Good",
    "cqc_url": "http://www.cqc.org.uk/location/1-4678486659",
    "lat": 51.586101,
    "lng": -0.277362
  },
  {
    "ods_code": "E84067",
    "name": "Church Lane Surgery",
    "address": "282 CHURCH LANE, KINGSBURY, LONDON",
    "postcode": "NW9 8LU",
    "phone": "020 82000077",
    "gpps_overall_pct": 69.3,
    "gpps_contact_pct": 57.1,
    "gpps_responses": 122,
    "gpps_pcn": "HARNESS NORTH PCN",
    "cqc_rating": "Good",
    "cqc_url": "http://www.cqc.org.uk/location/1-496491998",
    "lat": 51.574934,
    "lng": -0.262141
  },
  {
    "ods_code": "E84074",
    "name": "FREUCHEN MEDICAL CENTRE",
    "address": "190 HIGH STREET, HARLESDEN, LONDON",
    "postcode": "NW10 4ST",
    "phone": "020 89655174",
    "gpps_overall_pct": 76.5,
    "gpps_contact_pct": 69.1,
    "gpps_responses": 118,
    "gpps_pcn": "HARNESS SOUTH PCN",
    "cqc_rating": "Good",
    "cqc_url": "http://www.cqc.org.uk/location/1-547475467",
    "lat": 51.534533,
    "lng": -0.242975,
    "official_name": "Freuchen Medical Centre"
  },
  {
    "ods_code": "E84076",
    "name": "Oxgate Gardens Surgery",
    "address": "81 OXGATE GARDENS, LONDON",
    "postcode": "NW2 6EA",
    "phone": "020 84327337",
    "gpps_overall_pct": 56.7,
    "gpps_contact_pct": 50.0,
    "gpps_responses": 100,
    "gpps_pcn": "HARNESS SOUTH PCN",
    "cqc_rating": "Good",
    "cqc_url": "http://www.cqc.org.uk/location/1-545398836",
    "lat": 51.564483,
    "lng": -0.227767
  },
  {
    "ods_code": "E84078",
    "name": "Kingsbury Health And Wellbeing",
    "address": "245 STAG LANE, KINGSBURY, LONDON",
    "postcode": "NW9 0EF",
    "phone": "020 82040777",
    "gpps_overall_pct": 90.4,
    "gpps_contact_pct": 81.2,
    "gpps_responses": 71,
    "gpps_pcn": "BRENT NORTH KWH PCN",
    "cqc_rating": "Good",
    "cqc_url": "http://www.cqc.org.uk/location/1-8679340008",
    "lat": 51.591736,
    "lng": -0.265484
  },
  {
    "ods_code": "E84080",
    "name": "Staverton Surgery",
    "address": "51 STAVERTON ROAD, LONDON",
    "postcode": "NW2 5HA",
    "phone": "020 84591359",
    "gpps_overall_pct": 90.1,
    "gpps_contact_pct": 81.1,
    "gpps_responses": 95,
    "gpps_pcn": "KILBURN PARTNERSHIP PCN",
    "cqc_rating": "Good",
    "cqc_url": "http://www.cqc.org.uk/location/1-550865493",
    "lat": 51.544184,
    "lng": -0.225816
  },
  {
    "ods_code": "E84086",
    "name": "Walm Lane Surgery",
    "address": "114 WALM LANE, LONDON",
    "postcode": "NW2 4RT",
    "phone": "020 84520366",
    "gpps_overall_pct": 89.2,
    "gpps_contact_pct": 79.2,
    "gpps_responses": 90,
    "gpps_pcn": "HARNESS SOUTH PCN",
    "cqc_rating": "Good",
    "cqc_url": "http://www.cqc.org.uk/location/1-549080659",
    "lat": 51.550348,
    "lng": -0.219532
  },
  {
    "ods_code": "E84637",
    "name": "Hilltop Medical Practice",
    "address": "HILLSIDE PRIMARY CC, 150 HILLTOP AVENUE, HARLESDEN, LONDON",
    "postcode": "NW10 8RY",
    "phone": "020 31887250",
    "gpps_overall_pct": 80.8,
    "gpps_contact_pct": 83.9,
    "gpps_responses": 117,
    "gpps_pcn": "HARNESS SOUTH PCN",
    "cqc_rating": "Good",
    "cqc_url": "http://www.cqc.org.uk/location/1-503677225",
    "lat": 51.542474,
    "lng": -0.26358
  },
  {
    "ods_code": "E84645",
    "name": "Park Royal Medical Practice",
    "address": "HEALTH & WELL-BEING HUB, CTRL MDDX HOSP, ACTON LANE, LONDON",
    "postcode": "NW10 7NS",
    "phone": "020 89611183",
    "gpps_overall_pct": 69.0,
    "gpps_contact_pct": 62.7,
    "gpps_responses": 114,
    "gpps_pcn": "HARNESS SOUTH PCN",
    "cqc_rating": "Good",
    "cqc_url": "http://www.cqc.org.uk/location/1-5373877841",
    "lat": 51.530938,
    "lng": -0.269138
  },
  {
    "ods_code": "E84656",
    "name": "Roundwood Park Medical Centre",
    "address": "ROBSON AVENUE, LONDON",
    "postcode": "NW10 3RY",
    "phone": "020 84387070",
    "gpps_overall_pct": 69.0,
    "gpps_contact_pct": 64.2,
    "gpps_responses": 112,
    "gpps_pcn": "HARNESS SOUTH PCN",
    "cqc_rating": "Good",
    "cqc_url": "http://www.cqc.org.uk/location/1-538824034",
    "lat": 51.542838,
    "lng": -0.235502
  },
  {
    "ods_code": "E84665",
    "name": "Neasden Medical Centre",
    "address": "21 TANFIELD AVENUE, NEASDEN, LONDON",
    "postcode": "NW2 7SA",
    "phone": "020 82080306",
    "gpps_overall_pct": 64.1,
    "gpps_contact_pct": 62.8,
    "gpps_responses": 93,
    "gpps_pcn": "BRENT NORTH KWH PCN",
    "cqc_rating": "Requires improvement",
    "cqc_url": "http://www.cqc.org.uk/location/1-12149045811",
    "lat": 51.559617,
    "lng": -0.247476
  },
  {
    "ods_code": "E84674",
    "name": "Chichele Road Surgery",
    "address": "25 CHICHELE ROAD, CRICKLEWOOD, LONDON",
    "postcode": "NW2 3AN",
    "phone": "020 84524666",
    "gpps_overall_pct": 70.7,
    "gpps_contact_pct": 66.8,
    "gpps_responses": 117,
    "gpps_pcn": "KILBURN PARTNERSHIP PCN",
    "cqc_rating": "Good",
    "cqc_url": "http://www.cqc.org.uk/location/1-541883379",
    "lat": 51.55483,
    "lng": -0.216242
  },
  {
    "ods_code": "E84699",
    "name": "Kings Edge Medical Centre",
    "address": "132 STAG LANE, KINGSBURY, LONDON",
    "postcode": "NW9 0QP",
    "phone": "020 82040151",
    "gpps_overall_pct": 81.0,
    "gpps_contact_pct": 84.8,
    "gpps_responses": 111,
    "gpps_pcn": "BRENT NORTH KWH PCN",
    "cqc_rating": "Good",
    "cqc_url": "http://www.cqc.org.uk/location/1-574409548",
    "lat": 51.594986,
    "lng": -0.268767
  },
  {
    "ods_code": "E84702",
    "name": "Willesden Green Surgery",
    "address": "59 ANSON ROAD, LONDON",
    "postcode": "NW2 3UY",
    "phone": "020 82084141",
    "gpps_overall_pct": 83.3,
    "gpps_contact_pct": 84.4,
    "gpps_responses": 103,
    "gpps_pcn": "BRENT SOUTH KWH PCN",
    "cqc_rating": "Good",
    "cqc_url": "http://www.cqc.org.uk/location/1-4617349894",
    "lat": 51.55376,
    "lng": -0.216211
  },
  {
    "ods_code": "E84704",
    "name": "St. Georges Medical Centre",
    "address": "PARK HILL HOUSE, 9 DOLLIS HILL LANE, LONDON",
    "postcode": "NW2 6JH",
    "phone": "020 84504040",
    "gpps_overall_pct": 90.4,
    "gpps_contact_pct": 83.9,
    "gpps_responses": 93,
    "gpps_pcn": "BRENT SOUTH KWH PCN",
    "cqc_rating": "Good",
    "cqc_url": "http://www.cqc.org.uk/location/1-494009863",
    "lat": 51.558733,
    "lng": -0.246096
  },
  {
    "ods_code": "E85003",
    "name": "North End Medical Centre",
    "address": "160 NORTH END ROAD, WEST KENSINGTON, LONDON",
    "postcode": "W14 9PR",
    "phone": "020 73857777",
    "gpps_overall_pct": 84.3,
    "gpps_contact_pct": 81.6,
    "gpps_responses": 106,
    "gpps_pcn": "HAMMERSMITH & FULHAM PARTNERSHIP PCN",
    "cqc_rating": "Good",
    "cqc_url": "http://www.cqc.org.uk/location/1-7938959463",
    "lat": 51.487802,
    "lng": -0.204053
  },
  {
    "ods_code": "E85005",
    "name": "The Westway Surgery",
    "address": "13 WESTWAY, SHEPHERDS BUSH, LONDON",
    "postcode": "W12 0PT",
    "phone": "020 87433704",
    "gpps_overall_pct": 75.6,
    "gpps_contact_pct": 71.3,
    "gpps_responses": 119,
    "gpps_pcn": "NORTH HAMMERSMITH & FULHAM PCN",
    "cqc_rating": "Good",
    "cqc_url": "http://www.cqc.org.uk/location/1-583958502",
    "lat": 51.514207,
    "lng": -0.247606
  },
  {
    "ods_code": "E85008",
    "name": "North Fulham Surgery",
    "address": "82 LILLIE ROAD, LONDON",
    "postcode": "SW6 1TN",
    "phone": "020 74712650",
    "gpps_overall_pct": 81.7,
    "gpps_contact_pct": 83.6,
    "gpps_responses": 106,
    "gpps_pcn": "HAMMERSMITH & FULHAM CENTRAL PCN",
    "cqc_rating": "Good",
    "cqc_url": "http://www.cqc.org.uk/location/1-569641532",
    "lat": 51.486399,
    "lng": -0.199326
  },
  {
    "ods_code": "E85014",
    "name": "Northfields Surgery",
    "address": "61 NORTHFIELD AVENUE, EALING, LONDON",
    "postcode": "W13 9QP",
    "phone": "020 85671612",
    "gpps_overall_pct": 55.4,
    "gpps_contact_pct": 48.7,
    "gpps_responses": 126,
    "gpps_pcn": "SOUTH CENTRAL EALING PCN",
    "cqc_rating": "Good",
    "cqc_url": "http://www.cqc.org.uk/location/1-549115550",
    "lat": 51.505053,
    "lng": -0.318967
  },
  {
    "ods_code": "E85025",
    "name": "Cassidy Road Medical Centre",
    "address": "651A FULHAM ROAD, FULHAM, LONDON",
    "postcode": "SW6 5PX",
    "phone": "020 73844850",
    "gpps_overall_pct": 77.2,
    "gpps_contact_pct": 70.9,
    "gpps_responses": 86,
    "gpps_pcn": "SOUTH FULHAM PCN",
    "cqc_rating": "Good",
    "cqc_url": "http://www.cqc.org.uk/location/1-2158367538",
    "lat": 51.479155,
    "lng": -0.198992
  },
  {
    "ods_code": "E85026",
    "name": "Gordon House Surgery",
    "address": "MATTOCK LANE HEALTH CTR, 78 MATTOCK LANE, WEST EALING, LONDON",
    "postcode": "W13 9NZ",
    "phone": "020 87995699",
    "gpps_overall_pct": 76.2,
    "gpps_contact_pct": 70.6,
    "gpps_responses": 114,
    "gpps_pcn": "THE EALING NETWORK PCN",
    "cqc_rating": "Good",
    "cqc_url": "http://www.cqc.org.uk/location/1-581993949",
    "lat": 51.509945,
    "lng": -0.315198
  },
  {
    "ods_code": "E85029",
    "name": "The Medical Centre, Dr Jefferies & Partn",
    "address": "292 MUNSTER ROAD, FULHAM, LONDON",
    "postcode": "SW6 6BQ",
    "phone": "020 73851965",
    "gpps_overall_pct": 73.4,
    "gpps_contact_pct": 74.1,
    "gpps_responses": 114,
    "gpps_pcn": "GP AT HAND PCN",
    "cqc_rating": "Good",
    "cqc_url": "http://www.cqc.org.uk/location/1-566408015",
    "lat": 51.481206,
    "lng": -0.212607
  },
  {
    "ods_code": "E85032",
    "name": "Ashchurch Surgery",
    "address": "134 ASKEW ROAD, SHEPHERDS BUSH, LONDON",
    "postcode": "W12 9BP",
    "phone": "0844 4778673",
    "gpps_overall_pct": 88.7,
    "gpps_contact_pct": 80.5,
    "gpps_responses": 87,
    "gpps_pcn": "HAMMERSMITH & FULHAM CENTRAL PCN",
    "cqc_rating": "Good",
    "cqc_url": "http://www.cqc.org.uk/location/1-8611248535",
    "lat": 51.501853,
    "lng": -0.242317
  },
  {
    "ods_code": "E85034",
    "name": "Grosvenor House Surgery",
    "address": "GROSVENOR HOUSE, 147 BROADWAY, WEST EALING, LONDON",
    "postcode": "W13 9BE",
    "phone": "020 87992525",
    "gpps_overall_pct": 77.9,
    "gpps_contact_pct": 71.5,
    "gpps_responses": 111,
    "gpps_pcn": "SOUTH CENTRAL EALING PCN",
    "cqc_rating": "Requires improvement",
    "cqc_url": "http://www.cqc.org.uk/location/1-545604122",
    "lat": 51.509418,
    "lng": -0.327395
  },
  {
    "ods_code": "E85038",
    "name": "Palace Surgery",
    "address": "510 FULHAM PALACE ROAD, FULHAM, LONDON",
    "postcode": "SW6 6JD",
    "phone": "020 77366305",
    "gpps_overall_pct": 82.2,
    "gpps_contact_pct": 76.7,
    "gpps_responses": 103,
    "gpps_pcn": "SOUTH FULHAM PCN",
    "cqc_rating": "Good",
    "cqc_url": "http://www.cqc.org.uk/location/1-572889366",
    "lat": 51.476282,
    "lng": -0.215809
  },
  {
    "ods_code": "E85042",
    "name": "The New Surgery",
    "address": "143A UXBRIDGE ROAD, SHEPHERDS BUSH, LONDON",
    "postcode": "W12 9RD",
    "phone": "020 87431511",
    "gpps_overall_pct": 90.8,
    "gpps_contact_pct": 87.9,
    "gpps_responses": 102,
    "gpps_pcn": "NORTH HAMMERSMITH & FULHAM PCN",
    "cqc_rating": "Good",
    "cqc_url": "http://www.cqc.org.uk/location/1-551048365",
    "lat": 51.506059,
    "lng": -0.235555
  },
  {
    "ods_code": "E85055",
    "name": "The Bush Doctors",
    "address": "16-17 WEST 12 SHOPPING CENTRE, SHEPHERDS BUSH GREEN, LONDON",
    "postcode": "W12 8PP",
    "phone": "020 87491882",
    "gpps_overall_pct": 77.1,
    "gpps_contact_pct": 77.7,
    "gpps_responses": 121,
    "gpps_pcn": "HAMMERSMITH & FULHAM PARTNERSHIP PCN",
    "cqc_rating": "Good",
    "cqc_url": "http://www.cqc.org.uk/location/1-7939076091",
    "lat": 51.503863,
    "lng": -0.21881
  },
  {
    "ods_code": "E85074",
    "name": "West Kensington Gp Surgery",
    "address": "MILSON ROAD HEALTH CENTRE, 1-13 MILSON ROAD, LONDON",
    "postcode": "W14 0LJ",
    "phone": "020 76037563",
    "gpps_overall_pct": 76.2,
    "gpps_contact_pct": 77.2,
    "gpps_responses": 97,
    "gpps_pcn": "HAMMERSMITH & FULHAM CENTRAL PCN",
    "cqc_rating": "Good",
    "cqc_url": "http://www.cqc.org.uk/location/1-12808294525",
    "lat": 51.49982,
    "lng": -0.216648
  },
  {
    "ods_code": "E85077",
    "name": "Shepherds Bush Medical Centre",
    "address": "336 UXBRIDGE ROAD, SHEPHERDS BUSH, LONDON",
    "postcode": "W12 7LS",
    "phone": "020 87435153",
    "gpps_overall_pct": 74.6,
    "gpps_contact_pct": 74.1,
    "gpps_responses": 89,
    "gpps_pcn": "NORTH HAMMERSMITH & FULHAM PCN",
    "cqc_rating": "Good",
    "cqc_url": "http://www.cqc.org.uk/location/1-572837698",
    "lat": 51.506615,
    "lng": -0.233069
  },
  {
    "ods_code": "E85099",
    "name": "The Avenue Surgery",
    "address": "102 THE AVENUE, WEST EALING, LONDON",
    "postcode": "W13 8LA",
    "phone": "020 89972525",
    "gpps_overall_pct": 81.8,
    "gpps_contact_pct": 78.1,
    "gpps_responses": 100,
    "gpps_pcn": "THE EALING NETWORK PCN",
    "cqc_rating": "Good",
    "cqc_url": "http://www.cqc.org.uk/location/1-12826486550",
    "lat": 51.51839,
    "lng": -0.319009
  },
  {
    "ods_code": "E85118",
    "name": "The Fulham Medical Centre",
    "address": "446 FULHAM ROAD, FULHAM, LONDON",
    "postcode": "SW6 1BG",
    "phone": "020 73856001",
    "gpps_overall_pct": 87.7,
    "gpps_contact_pct": 90.6,
    "gpps_responses": 115,
    "gpps_pcn": "SOUTH FULHAM PCN",
    "cqc_rating": "Good",
    "cqc_url": "http://www.cqc.org.uk/location/1-550987410",
    "lat": 51.480737,
    "lng": -0.193096
  },
  {
    "ods_code": "E85120",
    "name": "The Argyle Surgery",
    "address": "128 ARGYLE ROAD, WEST EALING, LONDON",
    "postcode": "W13 8ER",
    "phone": "020 80901153",
    "gpps_overall_pct": 76.2,
    "gpps_contact_pct": 61.8,
    "gpps_responses": 128,
    "gpps_pcn": "THE EALING NETWORK PCN",
    "cqc_rating": "Good",
    "cqc_url": "http://www.cqc.org.uk/location/1-547239669",
    "lat": 51.520338,
    "lng": -0.322569
  },
  {
    "ods_code": "E85124",
    "name": "Gp At Hand",
    "address": "139 LILLIE ROAD, FULHAM, LONDON",
    "postcode": "SW6 7SX",
    "phone": "0330 8082217",
    "gpps_overall_pct": 68.4,
    "gpps_contact_pct": 61.7,
    "gpps_responses": 89,
    "gpps_pcn": "GP AT HAND PCN",
    "cqc_rating": "Good",
    "cqc_url": "http://www.cqc.org.uk/location/1-6129587714",
    "lat": 51.484798,
    "lng": -0.203407
  },
  {
    "ods_code": "E85125",
    "name": "Sterndale Surgery",
    "address": "MILSON ROAD HEALTH CENTRE, 1-13 MILSON ROAD, LONDON",
    "postcode": "W14 0LJ",
    "phone": "020 76023797",
    "gpps_overall_pct": 86.1,
    "gpps_contact_pct": 76.5,
    "gpps_responses": 119,
    "gpps_pcn": "HAMMERSMITH & FULHAM CENTRAL PCN",
    "cqc_rating": "Good",
    "cqc_url": "http://www.cqc.org.uk/location/1-12914326925",
    "lat": 51.49982,
    "lng": -0.216648
  },
  {
    "ods_code": "E85128",
    "name": "Sands End Health Clinic",
    "address": "BRIDGE HOUSE CENTRE FOR HEALTH, 1 BROUGHTON APPROACH ROAD, FULHAM, LONDON",
    "postcode": "SW6 2FE",
    "phone": "020 30115745",
    "gpps_overall_pct": 75.2,
    "gpps_contact_pct": 68.3,
    "gpps_responses": 94,
    "gpps_pcn": "SOUTH FULHAM PCN",
    "cqc_rating": "Good",
    "cqc_url": "http://www.cqc.org.uk/location/1-584666531",
    "lat": 51.473129,
    "lng": -0.191367
  },
  {
    "ods_code": "E85649",
    "name": "Fulham Cross Medical Centre",
    "address": "322 LILLIE ROAD, FULHAM, LONDON",
    "postcode": "SW6 7PP",
    "phone": "020 73851964",
    "gpps_overall_pct": 67.3,
    "gpps_contact_pct": 77.4,
    "gpps_responses": 88,
    "gpps_pcn": "SOUTH FULHAM PCN",
    "cqc_rating": "Good",
    "cqc_url": "http://www.cqc.org.uk/location/1-6744301662",
    "lat": 51.482775,
    "lng": -0.214044
  },
  {
    "ods_code": "E85685",
    "name": "The Lilyville Surgery",
    "address": "PARSONS GREEN HEALTH CENT, 5-7 PARSONS GREEN, LONDON",
    "postcode": "SW6 4UL",
    "phone": "020 77364344",
    "gpps_overall_pct": 74.8,
    "gpps_contact_pct": 70.7,
    "gpps_responses": 101,
    "gpps_pcn": "SOUTH FULHAM PCN",
    "cqc_rating": "Good",
    "cqc_url": "http://www.cqc.org.uk/location/1-6226776993",
    "lat": 51.47377,
    "lng": -0.199131
  },
  {
    "ods_code": "E85719",
    "name": "Ashville Surgery",
    "address": "SWAN HOUSE, PARSONS GREEN LANE, FULHAM, LONDON",
    "postcode": "SW6 4HS",
    "phone": "020 73717171",
    "gpps_overall_pct": 84.2,
    "gpps_contact_pct": 77.8,
    "gpps_responses": 119,
    "gpps_pcn": "SOUTH FULHAM PCN",
    "cqc_rating": "Good",
    "cqc_url": "http://www.cqc.org.uk/location/1-522251737",
    "lat": 51.47622,
    "lng": -0.201109
  },
  {
    "ods_code": "E85726",
    "name": "Mattock Lane Health Centre",
    "address": "78 MATTOCK LANE, WEST EALING, LONDON",
    "postcode": "W13 9NZ",
    "phone": "020 85671121",
    "gpps_overall_pct": 81.7,
    "gpps_contact_pct": 84.2,
    "gpps_responses": 110,
    "gpps_pcn": "THE EALING NETWORK PCN",
    "cqc_rating": "Good",
    "cqc_url": "http://www.cqc.org.uk/location/1-2255467795",
    "lat": 51.509945,
    "lng": -0.315198
  },
  {
    "ods_code": "E85748",
    "name": "The Medical Centre, Dr Kukar",
    "address": "13 OLLGAR CLOSE, LONDON",
    "postcode": "W12 0NF",
    "phone": "020 87407407",
    "gpps_overall_pct": 63.8,
    "gpps_contact_pct": 63.7,
    "gpps_responses": 84,
    "gpps_pcn": "NORTH HAMMERSMITH & FULHAM PCN",
    "cqc_rating": "Good",
    "cqc_url": "http://www.cqc.org.uk/location/1-579303624",
    "lat": 51.507127,
    "lng": -0.243843
  },
  {
    "ods_code": "E87002",
    "name": "Victoria Medical Centre",
    "address": "29 UPPER TACHBROOK STREET, LONDON",
    "postcode": "SW1V 1SN",
    "phone": "020 78342298",
    "gpps_overall_pct": 64.3,
    "gpps_contact_pct": 55.8,
    "gpps_responses": 120,
    "gpps_pcn": "SOUTH WESTMINSTER PCN",
    "cqc_rating": "Good",
    "cqc_url": "http://www.cqc.org.uk/location/1-549035404",
    "lat": 51.492911,
    "lng": -0.138954
  },
  {
    "ods_code": "E87003",
    "name": "North Kensington Medical Centre",
    "address": "ST. QUINTIN AVENUE, LONDON",
    "postcode": "W10 6NX",
    "phone": "020 89695151",
    "gpps_overall_pct": 81.8,
    "gpps_contact_pct": 76.1,
    "gpps_responses": 117,
    "gpps_pcn": "WEST-HILL HEALTH PCN",
    "cqc_rating": "Good",
    "cqc_url": "http://www.cqc.org.uk/location/1-1152850640",
    "lat": 51.5192,
    "lng": -0.220301
  },
  {
    "ods_code": "E87004",
    "name": "Health Partners At Violet Melchett",
    "address": "30 FLOOD WALK, LONDON",
    "postcode": "SW3 5RR",
    "phone": "020 74602222",
    "gpps_overall_pct": 85.0,
    "gpps_contact_pct": 79.5,
    "gpps_responses": 115,
    "gpps_pcn": "BROMPTON HEALTH PCN",
    "cqc_rating": "Good",
    "cqc_url": "http://www.cqc.org.uk/location/1-572868905",
    "lat": 51.486806,
    "lng": -0.166987
  },
  {
    "ods_code": "E87005",
    "name": "Belgravia Surgery",
    "address": "24 ECCLESTON STREET, BELGRAVIA, LONDON",
    "postcode": "SW1W 9PY",
    "phone": "020 75908000",
    "gpps_overall_pct": 82.2,
    "gpps_contact_pct": 84.5,
    "gpps_responses": 133,
    "gpps_pcn": "SOUTH WESTMINSTER PCN",
    "cqc_rating": "Good",
    "cqc_url": "http://www.cqc.org.uk/location/1-17920435330",
    "lat": 51.495005,
    "lng": -0.148535
  },
  {
    "ods_code": "E87007",
    "name": "Westbourne Grove Medical Centre",
    "address": "241 WESTBOURNE GROVE, LONDON",
    "postcode": "W11 2SE",
    "phone": "020 72295800",
    "lat": 51.514211,
    "lng": -0.200362
  },
  {
    "ods_code": "E87011",
    "name": "Lisson Grove Health Centre",
    "address": "GATEFORTH STREET, LONDON",
    "postcode": "NW8 8EG",
    "phone": "020 33701940",
    "gpps_overall_pct": 71.9,
    "gpps_contact_pct": 62.9,
    "gpps_responses": 74,
    "gpps_pcn": "REGENT HEALTH PCN",
    "cqc_rating": "Good",
    "cqc_url": "http://www.cqc.org.uk/location/1-549237033",
    "lat": 51.524737,
    "lng": -0.169298
  },
  {
    "ods_code": "E87013",
    "name": "Stanhope Mews Surgery",
    "address": "7 STANHOPE MEWS WEST, LONDON",
    "postcode": "SW7 5RB",
    "phone": "020 78350400",
    "gpps_overall_pct": 84.7,
    "gpps_contact_pct": 81.5,
    "gpps_responses": 119,
    "gpps_pcn": "BROMPTON HEALTH PCN",
    "cqc_rating": "Good",
    "cqc_url": "http://www.cqc.org.uk/location/1-548294945",
    "lat": 51.494475,
    "lng": -0.181907
  },
  {
    "ods_code": "E87021",
    "name": "Shirland Medical",
    "address": "QUEENS PARK HEALTH CENTRE, DART STREET, LONDON",
    "postcode": "W10 4LD",
    "phone": "020 89692626",
    "gpps_overall_pct": 90.8,
    "gpps_contact_pct": 85.2,
    "gpps_responses": 132,
    "gpps_pcn": "INCLUSIVE HEALTH PCN",
    "cqc_rating": "Good",
    "cqc_url": "http://www.cqc.org.uk/location/1-10960349305",
    "lat": 51.530581,
    "lng": -0.207617
  },
  {
    "ods_code": "E87024",
    "name": "The Golborne Medical Centre",
    "address": "12-16 GOLBORNE ROAD, LONDON",
    "postcode": "W10 5PG",
    "phone": "020 89692058",
    "gpps_overall_pct": 89.7,
    "gpps_contact_pct": 84.6,
    "gpps_responses": 121,
    "gpps_pcn": "WEST-HILL HEALTH PCN",
    "cqc_rating": "Good",
    "cqc_url": "http://www.cqc.org.uk/location/1-550050002",
    "lat": 51.523949,
    "lng": -0.206738
  },
  {
    "ods_code": "E87026",
    "name": "Meanwhile Garden Medical Centre",
    "address": "UNIT 5, 1-31 ELKSTONE ROAD, LONDON",
    "postcode": "W10 5NT",
    "phone": "020 89605620",
    "gpps_overall_pct": 69.0,
    "gpps_contact_pct": 78.7,
    "gpps_responses": 89,
    "gpps_pcn": "INCLUSIVE HEALTH PCN",
    "cqc_rating": "Good",
    "cqc_url": "http://www.cqc.org.uk/location/1-566484316",
    "lat": 51.52223,
    "lng": -0.203101
  },
  {
    "ods_code": "E87029",
    "name": "Portland Road Practice",
    "address": "16 PORTLAND ROAD, LONDON",
    "postcode": "W11 4LA",
    "phone": "020 77277711",
    "gpps_overall_pct": 70.1,
    "gpps_contact_pct": 68.4,
    "gpps_responses": 101,
    "gpps_pcn": "WEST-HILL HEALTH PCN",
    "cqc_rating": "Good",
    "cqc_url": "http://www.cqc.org.uk/location/1-583913904",
    "lat": 51.507368,
    "lng": -0.207995
  },
  {
    "ods_code": "E87034",
    "name": "Pimlico Health At The Marven Surgery",
    "address": "46-50 LUPUS STREET, WESTMINSTER, LONDON",
    "postcode": "SW1V 3EB",
    "phone": "020 78341160",
    "gpps_overall_pct": 81.5,
    "gpps_contact_pct": 75.8,
    "gpps_responses": 91,
    "gpps_pcn": "SOUTH WESTMINSTER PCN",
    "cqc_rating": "Good",
    "cqc_url": "http://www.cqc.org.uk/location/1-549246825",
    "lat": 51.48845,
    "lng": -0.137752
  },
  {
    "ods_code": "E87043",
    "name": "Emperor'S Gate Surgery",
    "address": "FIRST FLOOR, 49 EMPERORS GATE, LONDON",
    "postcode": "SW7 4HJ",
    "phone": "020 72445670",
    "gpps_overall_pct": 86.6,
    "gpps_contact_pct": 84.6,
    "gpps_responses": 93,
    "gpps_pcn": "BROMPTON HEALTH PCN",
    "cqc_rating": "Good",
    "cqc_url": "http://www.cqc.org.uk/location/1-548511174",
    "lat": 51.496306,
    "lng": -0.1863
  },
  {
    "ods_code": "E87045",
    "name": "Covent Garden Medical Centre",
    "address": "47 SHORTS GARDENS, LONDON",
    "postcode": "WC2H 9AA",
    "phone": "020 73797209",
    "gpps_overall_pct": 69.2,
    "gpps_contact_pct": 65.3,
    "gpps_responses": 111,
    "gpps_pcn": "WEST END & MARYLEBONE PCN",
    "cqc_rating": "Good",
    "cqc_url": "http://www.cqc.org.uk/location/1-13950050475",
    "lat": 51.514796,
    "lng": -0.125147
  },
  {
    "ods_code": "E87047",
    "name": "Earls Court Medical Centre",
    "address": "248 EARLS COURT ROAD, LONDON",
    "postcode": "SW5 9AD",
    "phone": "020 78351455",
    "gpps_overall_pct": 73.5,
    "gpps_contact_pct": 64.1,
    "gpps_responses": 109,
    "gpps_pcn": "BROMPTON HEALTH PCN",
    "cqc_rating": "Good",
    "cqc_url": "http://www.cqc.org.uk/location/1-537762041",
    "lat": 51.491764,
    "lng": -0.192675
  },
  {
    "ods_code": "E87048",
    "name": "Rosary Garden Surgery",
    "address": "45 ROSARY GARDENS, LONDON",
    "postcode": "SW7 4NQ",
    "phone": "020 73736557",
    "gpps_overall_pct": 89.3,
    "gpps_contact_pct": 88.8,
    "gpps_responses": 94,
    "gpps_pcn": "K AND C SOUTH PCN",
    "cqc_rating": "Good",
    "cqc_url": "http://www.cqc.org.uk/location/1-6654175832",
    "lat": 51.492101,
    "lng": -0.183024
  },
  {
    "ods_code": "E87061",
    "name": "The Pembridge Villas Surgery",
    "address": "45A PEMBRIDGE VILLAS, LONDON",
    "postcode": "W11 3EP",
    "phone": "020 77272222",
    "gpps_overall_pct": 87.4,
    "gpps_contact_pct": 85.2,
    "gpps_responses": 100,
    "gpps_pcn": "WEST-HILL HEALTH PCN",
    "cqc_rating": "Good",
    "cqc_url": "http://www.cqc.org.uk/location/1-537665740",
    "lat": 51.512991,
    "lng": -0.197052
  },
  {
    "ods_code": "E87063",
    "name": "Kings Road Medical Centre",
    "address": "529 KINGS ROAD, CHELSEA, LONDON",
    "postcode": "SW10 0UD",
    "phone": "0844 8151870",
    "gpps_overall_pct": 70.7,
    "gpps_contact_pct": 76.3,
    "gpps_responses": 93,
    "gpps_pcn": "K AND C SOUTH PCN",
    "cqc_rating": "Good",
    "cqc_url": "http://www.cqc.org.uk/location/1-497344471",
    "lat": 51.480356,
    "lng": -0.184744
  },
  {
    "ods_code": "E87065",
    "name": "The Notting Hill Medical Centre",
    "address": "14 CODRINGTON MEWS, LONDON",
    "postcode": "W11 2EH",
    "phone": "020 77275800",
    "gpps_overall_pct": 80.7,
    "gpps_contact_pct": 89.0,
    "gpps_responses": 134,
    "gpps_pcn": "NEOHEALTH PCN",
    "cqc_rating": "Good",
    "cqc_url": "http://www.cqc.org.uk/location/1-511339098",
    "lat": 51.514855,
    "lng": -0.207182
  },
  {
    "ods_code": "E87067",
    "name": "Colville Health Centre",
    "address": "51 KENSINGTON PARK ROAD, LONDON",
    "postcode": "W11 1PA",
    "phone": "020 77274592",
    "gpps_overall_pct": 80.7,
    "gpps_contact_pct": 81.1,
    "gpps_responses": 106,
    "gpps_pcn": "NEOHEALTH PCN",
    "cqc_rating": "Good",
    "cqc_url": "http://www.cqc.org.uk/location/1-2158252488",
    "lat": 51.515838,
    "lng": -0.206207
  },
  {
    "ods_code": "E87609",
    "name": "St Johns Wood Medical Practice",
    "address": "BRAMPTON HOUSE, 60 GROVE END ROAD, LONDON",
    "postcode": "NW8 9NH",
    "phone": "020 36579449",
    "gpps_overall_pct": 85.6,
    "gpps_contact_pct": 88.2,
    "gpps_responses": 129,
    "gpps_pcn": "ST JOHN'S WOOD & MAIDA VALE PCN",
    "cqc_rating": "Good",
    "cqc_url": "http://www.cqc.org.uk/location/1-547469382",
    "lat": 51.533475,
    "lng": -0.175436
  },
  {
    "ods_code": "E87665",
    "name": "The Chelsea Practice",
    "address": "43 CHELSEA MANOR STREET, LONDON",
    "postcode": "SW3 5DD",
    "phone": "02073 497330",
    "gpps_overall_pct": 91.2,
    "gpps_contact_pct": 91.9,
    "gpps_responses": 121,
    "gpps_pcn": "BROMPTON HEALTH PCN",
    "cqc_rating": "Good",
    "cqc_url": "http://www.cqc.org.uk/location/1-18318883086",
    "lat": 51.486806,
    "lng": -0.166987
  },
  {
    "ods_code": "E87677",
    "name": "Imperial College Health Centre",
    "address": "40 PRINCES GARDENS, LONDON",
    "postcode": "SW7 1LY",
    "phone": "020 75846301",
    "gpps_overall_pct": 67.9,
    "gpps_contact_pct": 80.9,
    "gpps_responses": 42,
    "gpps_pcn": "REGENT HEALTH PCN",
    "cqc_rating": "Good",
    "cqc_url": "http://www.cqc.org.uk/location/1-547857861",
    "lat": 51.498656,
    "lng": -0.171987
  },
  {
    "ods_code": "E87702",
    "name": "The Surgery",
    "address": "7 KYNANCE PLACE, LONDON",
    "postcode": "SW7 4QS",
    "phone": "020 75813040",
    "gpps_overall_pct": 83.4,
    "gpps_contact_pct": 79.2,
    "gpps_responses": 116,
    "gpps_pcn": "K AND C SOUTH PCN",
    "cqc_rating": "Good",
    "cqc_url": "http://www.cqc.org.uk/location/1-7690014351",
    "lat": 51.497627,
    "lng": -0.184519
  },
  {
    "ods_code": "E87706",
    "name": "The Foreland Medical Centre",
    "address": "188 WALMER ROAD, LONDON",
    "postcode": "W11 4EP",
    "phone": "020 77272604",
    "gpps_overall_pct": 77.1,
    "gpps_contact_pct": 77.0,
    "gpps_responses": 122,
    "gpps_pcn": "NEOHEALTH PCN",
    "cqc_rating": "Good",
    "cqc_url": "http://www.cqc.org.uk/location/1-547902657",
    "lat": 51.512991,
    "lng": -0.212891
  },
  {
    "ods_code": "E87720",
    "name": "Kensington Park Medical Centre",
    "address": "75 RUSSELL ROAD, LONDON",
    "postcode": "W14 8HW",
    "phone": "020 73716060",
    "gpps_overall_pct": 88.8,
    "gpps_contact_pct": 88.0,
    "gpps_responses": 101,
    "gpps_pcn": "BROMPTON HEALTH PCN",
    "cqc_rating": "Good",
    "cqc_url": "http://www.cqc.org.uk/location/1-22162073762",
    "lat": 51.497326,
    "lng": -0.208764
  },
  {
    "ods_code": "E87733",
    "name": "The Exmoor Surgery",
    "address": "EXMOOR STREET, LONDON",
    "postcode": "W10 6DZ",
    "phone": "02037 724996",
    "gpps_overall_pct": 82.5,
    "gpps_contact_pct": 78.0,
    "gpps_responses": 88,
    "gpps_pcn": "NEOHEALTH PCN",
    "cqc_rating": "Good",
    "cqc_url": "http://www.cqc.org.uk/location/1-1168143594",
    "lat": 51.522364,
    "lng": -0.217194
  },
  {
    "ods_code": "E87737",
    "name": "Marylebone Health Centre",
    "address": "17 MARYLEBONE ROAD, LONDON",
    "postcode": "NW1 5LT",
    "phone": "020 79356328",
    "gpps_overall_pct": 79.4,
    "gpps_contact_pct": 82.1,
    "gpps_responses": 112,
    "gpps_pcn": "WEST END & MARYLEBONE PCN",
    "cqc_rating": "Good",
    "cqc_url": "http://www.cqc.org.uk/location/1-570823648",
    "lat": 51.52284,
    "lng": -0.151514
  },
  {
    "ods_code": "E87738",
    "name": "Knightsbridge Medical Centre",
    "address": "71-75 PAVILION ROAD, LONDON",
    "postcode": "SW1X 0ET",
    "phone": "02039 615260",
    "gpps_overall_pct": 79.6,
    "gpps_contact_pct": 72.7,
    "gpps_responses": 115,
    "gpps_pcn": "BROMPTON HEALTH PCN",
    "cqc_rating": "Good",
    "cqc_url": "http://www.cqc.org.uk/location/1-549669778",
    "lat": 51.498071,
    "lng": -0.159893
  },
  {
    "ods_code": "E87739",
    "name": "Millbank Medical Centre",
    "address": "MEDICAL CENTRE BUILDING, 20 PAGE STREET, LONDON",
    "postcode": "SW1P 4EN",
    "phone": "020 78345502",
    "gpps_overall_pct": 79.4,
    "gpps_contact_pct": 75.4,
    "gpps_responses": 129,
    "gpps_pcn": "SOUTH WESTMINSTER PCN",
    "cqc_rating": "Good",
    "cqc_url": "http://www.cqc.org.uk/location/1-547739555",
    "lat": 51.494031,
    "lng": -0.130207
  },
  {
    "ods_code": "E87740",
    "name": "The Dr Hickey Surgery For The Homeless",
    "address": "3-7 ARNEWAY STREET, LONDON",
    "postcode": "SW1P 2BG",
    "phone": "020 72228593",
    "cqc_rating": "Outstanding",
    "cqc_url": "http://www.cqc.org.uk/location/1-548202361",
    "lat": 51.495751,
    "lng": -0.131476
  },
  {
    "ods_code": "E87742",
    "name": "The Golborne Medical Centre",
    "address": "16 GOLBORNE ROAD, LONDON",
    "postcode": "W10 5PE",
    "phone": "020 89644801",
    "gpps_overall_pct": 96.1,
    "gpps_contact_pct": 89.8,
    "gpps_responses": 111,
    "gpps_pcn": "NEOHEALTH PCN",
    "cqc_rating": "Good",
    "cqc_url": "http://www.cqc.org.uk/location/1-3515071511",
    "lat": 51.524023,
    "lng": -0.206303
  },
  {
    "ods_code": "E87745",
    "name": "Cavendish Health Centre",
    "address": "LOWER GROUND FLOOR, 15 MARYLEBONE ROAD, LONDON",
    "postcode": "NW1 5JD",
    "phone": "020 74875244",
    "gpps_overall_pct": 78.3,
    "gpps_contact_pct": 76.7,
    "gpps_responses": 145,
    "gpps_pcn": "WEST END & MARYLEBONE PCN",
    "cqc_rating": "Good",
    "cqc_url": "http://www.cqc.org.uk/location/1-12619188295",
    "lat": 51.52284,
    "lng": -0.151514
  },
  {
    "ods_code": "E87746",
    "name": "Brompton Medical Centre",
    "address": "237-335 OLD BROMPTON ROAD, LONDON",
    "postcode": "SW5 0EA",
    "phone": "02073 734103",
    "gpps_overall_pct": 84.8,
    "gpps_contact_pct": 81.9,
    "gpps_responses": 97,
    "gpps_pcn": "K AND C SOUTH PCN",
    "cqc_rating": "Good",
    "cqc_url": "http://www.cqc.org.uk/location/1-542117631",
    "lat": 51.489436,
    "lng": -0.189843
  },
  {
    "ods_code": "E87750",
    "name": "Earls Court Surgery",
    "address": "269 OLD BROMPTON ROAD, EARLS COURT, LONDON",
    "postcode": "SW5 9JA",
    "phone": "020 73702643",
    "gpps_overall_pct": 85.2,
    "gpps_contact_pct": 87.3,
    "gpps_responses": 115,
    "gpps_pcn": "BROMPTON HEALTH PCN",
    "cqc_rating": "Requires improvement",
    "cqc_url": "http://www.cqc.org.uk/location/1-2310368016",
    "lat": 51.488721,
    "lng": -0.191873
  },
  {
    "ods_code": "E87751",
    "name": "Srikrishnamurthy Harrow Road Surgery",
    "address": "574 HARROW ROAD, LONDON",
    "postcode": "W10 4NJ",
    "phone": "020 89605499",
    "gpps_overall_pct": 91.1,
    "gpps_contact_pct": 80.8,
    "gpps_responses": 99,
    "gpps_pcn": "INCLUSIVE HEALTH PCN",
    "cqc_rating": "Requires improvement",
    "cqc_url": "http://www.cqc.org.uk/location/1-8585794069",
    "lat": 51.526565,
    "lng": -0.206679
  },
  {
    "ods_code": "E87753",
    "name": "Belgrave Medical Centre",
    "address": "THE SURGERY, 13 PIMLICO ROAD, LONDON",
    "postcode": "SW1W 8NA",
    "phone": "020 77305171",
    "gpps_overall_pct": 88.4,
    "gpps_contact_pct": 84.0,
    "gpps_responses": 96,
    "gpps_pcn": "SOUTH WESTMINSTER PCN",
    "cqc_rating": "Requires improvement",
    "cqc_url": "http://www.cqc.org.uk/location/1-12089849295",
    "lat": 51.490652,
    "lng": -0.151333
  },
  {
    "ods_code": "E87755",
    "name": "Queens Park Health Centre",
    "address": "DART STREET, LONDON",
    "postcode": "W10 4LD",
    "phone": "020 89649990",
    "gpps_overall_pct": 83.0,
    "gpps_contact_pct": 86.1,
    "gpps_responses": 118,
    "gpps_pcn": "INCLUSIVE HEALTH PCN",
    "cqc_rating": "Good",
    "cqc_url": "http://www.cqc.org.uk/location/1-563866257",
    "lat": 51.530581,
    "lng": -0.207617
  },
  {
    "ods_code": "E87756",
    "name": "Ground Floor Lanark Medical Centre",
    "address": "BRAMPTON HOUSE, 60 GROVE END ROAD, LONDON",
    "postcode": "NW8 9NH",
    "phone": "020 73281128",
    "gpps_overall_pct": 77.1,
    "gpps_contact_pct": 75.1,
    "gpps_responses": 111,
    "gpps_pcn": "ST JOHN'S WOOD & MAIDA VALE PCN",
    "cqc_rating": "Good",
    "cqc_url": "http://www.cqc.org.uk/location/1-6989677395",
    "lat": 51.533475,
    "lng": -0.175436
  },
  {
    "ods_code": "E87762",
    "name": "The Good Practice",
    "address": "KINGS ROAD, LONDON",
    "postcode": "SW10 0LR",
    "phone": "020 73511766",
    "gpps_overall_pct": 88.4,
    "gpps_contact_pct": 92.3,
    "gpps_responses": 112,
    "gpps_pcn": "BROMPTON HEALTH PCN",
    "cqc_rating": "Good",
    "cqc_url": "http://www.cqc.org.uk/location/1-3793820424",
    "lat": 51.482653,
    "lng": -0.178042
  },
  {
    "ods_code": "E87766",
    "name": "Connection At St Martins",
    "address": "12 ADELAIDE STREET, LONDON",
    "postcode": "WC2N 4HW",
    "phone": "020 77665520",
    "lat": 51.509235,
    "lng": -0.126111
  },
  {
    "ods_code": "E87768",
    "name": "Kings College Health Centre",
    "address": "3RD FLOOR, BUSH HOUSE, SOUTH EAST WING, 300 STRAND, LONDON",
    "postcode": "WC2B 4PJ",
    "phone": "020 78482613",
    "gpps_overall_pct": 66.8,
    "gpps_contact_pct": 70.8,
    "gpps_responses": 53,
    "gpps_pcn": "SOUTH WESTMINSTER PCN",
    "cqc_rating": "Good",
    "cqc_url": "http://www.cqc.org.uk/location/1-5354941310",
    "lat": 51.512285,
    "lng": -0.117742
  },
  {
    "ods_code": "E87774",
    "name": "The Passage",
    "address": "CARLISLE PLACE, LONDON",
    "postcode": "SW1P 1NL",
    "phone": "020 75921850",
    "lat": 51.495439,
    "lng": -0.141256
  },
  {
    "ods_code": "F83003",
    "name": "Park End Surgery",
    "address": "3 PARK END, LONDON",
    "postcode": "NW3 2SE",
    "phone": "020 74357282",
    "gpps_overall_pct": 90.1,
    "gpps_contact_pct": 86.2,
    "gpps_responses": 120,
    "gpps_pcn": "NORTH CAMDEN PCN",
    "cqc_rating": "Good",
    "cqc_url": "http://www.cqc.org.uk/location/1-583013366",
    "lat": 51.556029,
    "lng": -0.165647
  },
  {
    "ods_code": "F83004",
    "name": "Archway Medical Centre",
    "address": "652 HOLLOWAY ROAD, LONDON",
    "postcode": "N19 3NU",
    "phone": "020 72720111",
    "gpps_overall_pct": 62.9,
    "gpps_contact_pct": 64.1,
    "gpps_responses": 94,
    "gpps_pcn": "NORTH 2 ISLINGTON PCN",
    "cqc_rating": "Good",
    "cqc_url": "http://www.cqc.org.uk/location/1-547846390",
    "lat": 51.562544,
    "lng": -0.126098
  },
  {
    "ods_code": "F83005",
    "name": "Gower Street Practice",
    "address": "20 GOWER STREET, LONDON",
    "postcode": "WC1E 6DP",
    "phone": "020 76367628",
    "gpps_overall_pct": 59.4,
    "gpps_contact_pct": 73.0,
    "gpps_responses": 54,
    "gpps_pcn": "WEST AND CENTRAL PCN",
    "cqc_rating": "Good",
    "cqc_url": "http://www.cqc.org.uk/location/1-591883124",
    "lat": 51.520122,
    "lng": -0.129801
  },
  {
    "ods_code": "F83006",
    "name": "Ampthill & Regents Park Practice",
    "address": "57-59 CROWNDALE ROAD, LONDON",
    "postcode": "NW1 1TN",
    "phone": "02073 837333",
    "gpps_overall_pct": 80.8,
    "gpps_contact_pct": 69.7,
    "gpps_responses": 115,
    "gpps_pcn": "CENTRAL CAMDEN PCN",
    "cqc_rating": "Good",
    "cqc_url": "http://www.cqc.org.uk/location/1-597402907",
    "lat": 51.534602,
    "lng": -0.137267
  },
  {
    "ods_code": "F83011",
    "name": "Primrose Hill Surgery",
    "address": "99 REGENTS PARK ROAD, LONDON",
    "postcode": "NW1 8UR",
    "phone": "020 77220038",
    "gpps_overall_pct": 83.7,
    "gpps_contact_pct": 86.9,
    "gpps_responses": 97,
    "gpps_pcn": "CENTRAL HAMPSTEAD PCN",
    "cqc_rating": "Good",
    "cqc_url": "http://www.cqc.org.uk/location/1-5051935092",
    "lat": 51.542151,
    "lng": -0.156341
  },
  {
    "ods_code": "F83015",
    "name": "St Johns Way Medical Centre",
    "address": "96 ST. JOHN'S WAY, LONDON",
    "postcode": "N19 3RN",
    "phone": "020 72721585",
    "gpps_overall_pct": 76.3,
    "gpps_contact_pct": 73.1,
    "gpps_responses": 106,
    "gpps_pcn": "NORTH 1 ISLINGTON PCN",
    "cqc_rating": "Good",
    "cqc_url": "http://www.cqc.org.uk/location/1-566575076",
    "lat": 51.568025,
    "lng": -0.130894
  },
  {
    "ods_code": "F83017",
    "name": "Hampstead Group Practice",
    "address": "75 FLEET ROAD, LONDON",
    "postcode": "NW3 2QU",
    "phone": "020 74354000",
    "gpps_overall_pct": 85.0,
    "gpps_contact_pct": 85.0,
    "gpps_responses": 115,
    "gpps_pcn": "NORTH CAMDEN PCN",
    "cqc_rating": "Good",
    "cqc_url": "http://www.cqc.org.uk/location/1-565283643",
    "lat": 51.553173,
    "lng": -0.16305
  },
  {
    "ods_code": "F83018",
    "name": "Prince Of Wales Group Surgery",
    "address": "52 PRINCE OF WALES ROAD, LONDON",
    "postcode": "NW5 3LN",
    "phone": "020 72670067",
    "gpps_overall_pct": 71.1,
    "gpps_contact_pct": 70.1,
    "gpps_responses": 103,
    "gpps_pcn": "KENTISH TOWN CENTRAL PCN",
    "cqc_rating": "Inadequate",
    "cqc_url": "http://www.cqc.org.uk/location/1-2147365283",
    "lat": 51.546915,
    "lng": -0.147091
  },
  {
    "ods_code": "F83019",
    "name": "Abbey Medical Centre",
    "address": "85 ABBEY ROAD, LONDON",
    "postcode": "NW8 0AG",
    "phone": "020 76042455",
    "gpps_overall_pct": 93.9,
    "gpps_contact_pct": 87.3,
    "gpps_responses": 116,
    "gpps_pcn": "WEST CAMDEN PCN",
    "cqc_rating": "Good",
    "cqc_url": "http://www.cqc.org.uk/location/1-571651604",
    "lat": 51.537923,
    "lng": -0.185107
  },
  {
    "ods_code": "F83020",
    "name": "Adelaide Medical Centre",
    "address": "111 ADELAIDE ROAD, LONDON",
    "postcode": "NW3 3RY",
    "phone": "020 77224135",
    "gpps_overall_pct": 82.7,
    "gpps_contact_pct": 83.7,
    "gpps_responses": 113,
    "gpps_pcn": "NORTH CAMDEN PCN",
    "cqc_rating": "Good",
    "cqc_url": "http://www.cqc.org.uk/location/1-569698804",
    "lat": 51.54355,
    "lng": -0.161231
  },
  {
    "ods_code": "F83022",
    "name": "Caversham Group Practice",
    "address": "4 PECKWATER STREET, KENTISH TOWN, LONDON",
    "postcode": "NW5 2UP",
    "phone": "020 74285700",
    "gpps_overall_pct": 82.1,
    "gpps_contact_pct": 71.7,
    "gpps_responses": 126,
    "gpps_pcn": "KENTISH TOWN CENTRAL PCN",
    "cqc_rating": "Good",
    "cqc_url": "http://www.cqc.org.uk/location/1-550896114",
    "lat": 51.550469,
    "lng": -0.13809
  },
  {
    "ods_code": "F83023",
    "name": "James Wigg Practice",
    "address": "KENTISH TOWN HEALTH CENTRE, 2 BARTHOLOMEW ROAD, LONDON",
    "postcode": "NW5 2BX",
    "phone": "020 74284555",
    "gpps_overall_pct": 62.0,
    "gpps_contact_pct": 48.9,
    "gpps_responses": 126,
    "gpps_pcn": "KENTISH TOWN SOUTH PCN",
    "cqc_rating": "Good",
    "cqc_url": "http://www.cqc.org.uk/location/1-544215353",
    "lat": 51.546406,
    "lng": -0.139929
  },
  {
    "ods_code": "F83039",
    "name": "The Rise Group Practice",
    "address": "HORNSEY RISE HEALTH CENTRE, HORNSEY RISE, LONDON",
    "postcode": "N19 3YU",
    "phone": "020 75302484",
    "gpps_overall_pct": 70.7,
    "gpps_contact_pct": 74.8,
    "gpps_responses": 133,
    "gpps_pcn": "NORTH 2 ISLINGTON PCN",
    "cqc_rating": "Good",
    "cqc_url": "http://www.cqc.org.uk/location/1-569174475",
    "lat": 51.571447,
    "lng": -0.124982
  },
  {
    "ods_code": "F83042",
    "name": "Gray'S Inn Medical Group Chancery Lane",
    "address": "77 GRAY'S INN ROAD, LONDON",
    "postcode": "WC1X 8TS",
    "phone": "020 74059360",
    "gpps_overall_pct": 79.4,
    "gpps_contact_pct": 81.5,
    "gpps_responses": 88,
    "gpps_pcn": "CENTRAL HAMPSTEAD PCN",
    "cqc_rating": "Good",
    "cqc_url": "http://www.cqc.org.uk/location/1-4961743121",
    "lat": 51.522791,
    "lng": -0.114512
  },
  {
    "ods_code": "F83043",
    "name": "Ridgmount Practice",
    "address": "8 RIDGMOUNT STREET, LONDON",
    "postcode": "WC1E 7AA",
    "phone": "020 73876306",
    "gpps_overall_pct": 91.2,
    "gpps_contact_pct": 86.5,
    "gpps_responses": 42,
    "gpps_pcn": "CENTRAL CAMDEN PCN",
    "cqc_rating": "Good",
    "cqc_url": "http://www.cqc.org.uk/location/1-2542972097",
    "lat": 51.520467,
    "lng": -0.13117
  },
  {
    "ods_code": "F83044",
    "name": "The Bloomsbury Surgery",
    "address": "1 HANDEL STREET, LONDON",
    "postcode": "WC1N 1PD",
    "phone": "020 78378559",
    "gpps_overall_pct": 64.9,
    "gpps_contact_pct": 72.0,
    "gpps_responses": 84,
    "gpps_pcn": "CENTRAL CAMDEN PCN",
    "cqc_rating": "Good",
    "cqc_url": "http://www.cqc.org.uk/location/1-543779070",
    "lat": 51.52564,
    "lng": -0.122871
  },
  {
    "ods_code": "F83048",
    "name": "Brunswick Medical Centre Uhpc",
    "address": "39 BRUNSWICK CENTRE, LONDON",
    "postcode": "WC1N 1AF",
    "phone": "020 78373057",
    "gpps_overall_pct": 49.3,
    "gpps_contact_pct": 46.8,
    "gpps_responses": 69,
    "gpps_pcn": "CENTRAL CAMDEN PCN",
    "cqc_rating": "Good",
    "cqc_url": "http://www.cqc.org.uk/location/1-9043729973",
    "lat": 51.524275,
    "lng": -0.123504
  },
  {
    "ods_code": "F83050",
    "name": "Gray'S Inn Medical Group West Hampstead",
    "address": "80 FORTUNE GREEN ROAD, LONDON",
    "postcode": "NW6 1DS",
    "phone": "020 34355602",
    "gpps_overall_pct": 88.1,
    "gpps_contact_pct": 89.3,
    "gpps_responses": 96,
    "gpps_pcn": "CENTRAL HAMPSTEAD PCN",
    "cqc_rating": "Good",
    "cqc_url": "http://www.cqc.org.uk/location/1-13243383616",
    "lat": 51.554656,
    "lng": -0.196601
  },
  {
    "ods_code": "F83052",
    "name": "Brookfield Park Surgery",
    "address": "68 CHESTER ROAD, LONDON",
    "postcode": "N19 5BZ",
    "phone": "020 72639633",
    "gpps_overall_pct": 86.0,
    "gpps_contact_pct": 92.1,
    "gpps_responses": 117,
    "gpps_pcn": "NORTH CAMDEN PCN",
    "cqc_rating": "Good",
    "cqc_url": "http://www.cqc.org.uk/location/1-12180930823",
    "lat": 51.563724,
    "lng": -0.142656
  },
  {
    "ods_code": "F83053",
    "name": "Mildmay Medical Practice",
    "address": "2A GREEN LANES, LONDON",
    "postcode": "N16 9NF",
    "phone": "020 79231999",
    "gpps_overall_pct": 79.8,
    "gpps_contact_pct": 74.8,
    "gpps_responses": 106,
    "gpps_pcn": "CENTRAL 1 ISLINGTON PCN",
    "cqc_rating": "Good",
    "cqc_url": "http://www.cqc.org.uk/location/1-6516820270",
    "lat": 51.552476,
    "lng": -0.085704
  },
  {
    "ods_code": "F83055",
    "name": "West Hampstead Medical Centre",
    "address": "SOLENT ROAD HEALTH CLINIC, 9 SOLENT ROAD, LONDON",
    "postcode": "NW6 1TP",
    "phone": "020 74311588",
    "gpps_overall_pct": 85.2,
    "gpps_contact_pct": 82.6,
    "gpps_responses": 119,
    "gpps_pcn": "WEST CAMDEN PCN",
    "cqc_rating": "Good",
    "cqc_url": "http://www.cqc.org.uk/location/1-547436702",
    "lat": 51.550042,
    "lng": -0.196553
  },
  {
    "ods_code": "F83057",
    "name": "Parliament Hill Surgery",
    "address": "113-117 HIGHGATE ROAD, LONDON",
    "postcode": "NW5 1TR",
    "phone": "020 74829280",
    "gpps_overall_pct": 90.8,
    "gpps_contact_pct": 84.9,
    "gpps_responses": 140,
    "gpps_pcn": "KENTISH TOWN CENTRAL PCN",
    "cqc_rating": "Good",
    "cqc_url": "http://www.cqc.org.uk/location/1-10363751508",
    "lat": 51.555134,
    "lng": -0.145314
  },
  {
    "ods_code": "F83058",
    "name": "Holborn Medical Centre",
    "address": "64-66 LAMBS CONDUIT STREET, LONDON",
    "postcode": "WC1N 3NA",
    "phone": "020 30770044",
    "gpps_overall_pct": 94.4,
    "gpps_contact_pct": 93.2,
    "gpps_responses": 66,
    "gpps_pcn": "SOUTH CAMDEN PCN",
    "cqc_rating": "Good",
    "cqc_url": "http://www.cqc.org.uk/location/1-542341325",
    "lat": 51.522234,
    "lng": -0.118514
  },
  {
    "ods_code": "F83059",
    "name": "Brondesbury Medical Centre",
    "address": "279 KILBURN HIGH ROAD, LONDON",
    "postcode": "NW6 7JQ",
    "phone": "020 76249853",
    "gpps_overall_pct": 82.6,
    "gpps_contact_pct": 79.4,
    "gpps_responses": 106,
    "gpps_pcn": "WEST AND CENTRAL PCN",
    "cqc_rating": "Good",
    "cqc_url": "http://www.cqc.org.uk/location/1-569728647",
    "lat": 51.543507,
    "lng": -0.200258
  },
  {
    "ods_code": "F83061",
    "name": "Museum Practice",
    "address": "58 GREAT RUSSELL STREET, LONDON",
    "postcode": "WC1B 3BA",
    "phone": "020 74052739",
    "gpps_overall_pct": 98.4,
    "gpps_contact_pct": 98.9,
    "gpps_responses": 109,
    "gpps_pcn": "SOUTH CAMDEN PCN",
    "cqc_rating": "Good",
    "cqc_url": "http://www.cqc.org.uk/location/1-552701566",
    "lat": 51.518187,
    "lng": -0.125801
  },
  {
    "ods_code": "F83064",
    "name": "City Road Medical Centre",
    "address": "CITY HOUSE MEDICAL CENTRE, UNIT 1-3 GROUND FLOOR, CITY HOUSE, 190-196 CITY ROAD, LONDON",
    "postcode": "EC1V 2QH",
    "phone": "020 73368170",
    "gpps_overall_pct": 79.3,
    "gpps_contact_pct": 71.0,
    "gpps_responses": 107,
    "gpps_pcn": "SOUTH ISLINGTON PCN",
    "lat": 51.527897,
    "lng": -0.09109
  },
  {
    "ods_code": "F83615",
    "name": "Cholmley Gardens Surgery",
    "address": "1 CHOLMLEY GARDENS, MILL LANE, LONDON",
    "postcode": "NW6 1AE",
    "phone": "020 77946256",
    "gpps_overall_pct": 89.0,
    "gpps_contact_pct": 81.0,
    "gpps_responses": 112,
    "gpps_pcn": "CENTRAL HAMPSTEAD PCN",
    "cqc_rating": "Good",
    "cqc_url": "http://www.cqc.org.uk/location/1-572590221",
    "lat": 51.552264,
    "lng": -0.195398
  },
  {
    "ods_code": "F83623",
    "name": "Keats Group Practice",
    "address": "1B DOWNSHIRE HILL, LONDON",
    "postcode": "NW3 1NR",
    "phone": "020 34354672",
    "gpps_overall_pct": 74.6,
    "gpps_contact_pct": 78.8,
    "gpps_responses": 121,
    "gpps_pcn": "NORTH CAMDEN PCN",
    "cqc_rating": "Good",
    "cqc_url": "http://www.cqc.org.uk/location/1-571181369",
    "lat": 51.555537,
    "lng": -0.171004
  },
  {
    "ods_code": "F83624",
    "name": "Clerkenwell Medical Practice",
    "address": "FINSBURY HEALTH CENTRE, 17 PINE STREET, LONDON",
    "postcode": "EC1R 0LP",
    "phone": "020 78335906",
    "gpps_overall_pct": 81.4,
    "gpps_contact_pct": 73.8,
    "gpps_responses": 117,
    "gpps_pcn": "SOUTH ISLINGTON PCN",
    "cqc_rating": "Good",
    "cqc_url": "http://www.cqc.org.uk/location/1-581296299",
    "lat": 51.524866,
    "lng": -0.108818
  },
  {
    "ods_code": "F83632",
    "name": "Queens Crescent Practice",
    "address": "76 QUEENS CRESCENT, LONDON",
    "postcode": "NW5 4EB",
    "phone": "020 74856104",
    "gpps_overall_pct": 75.6,
    "gpps_contact_pct": 65.7,
    "gpps_responses": 108,
    "gpps_pcn": "KENTISH TOWN SOUTH PCN",
    "cqc_rating": "Good",
    "cqc_url": "http://www.cqc.org.uk/location/1-544084440",
    "lat": 51.54966,
    "lng": -0.151754
  },
  {
    "ods_code": "F83633",
    "name": "Gray'S Inn Medical Group Hampstead",
    "address": "5 DALEHAM GARDENS, LONDON",
    "postcode": "NW3 5BY",
    "phone": "020 31120800",
    "gpps_overall_pct": 95.2,
    "gpps_contact_pct": 79.8,
    "gpps_responses": 85,
    "gpps_pcn": "CENTRAL HAMPSTEAD PCN",
    "cqc_rating": "Good",
    "cqc_url": "http://www.cqc.org.uk/location/1-583706621",
    "lat": 51.547954,
    "lng": -0.174352
  },
  {
    "ods_code": "F83635",
    "name": "Kings Cross Surgery",
    "address": "77-83 CHALTON STREET, LONDON",
    "postcode": "NW1 1HY",
    "phone": "020 72789074",
    "gpps_overall_pct": 55.0,
    "gpps_contact_pct": 45.1,
    "gpps_responses": 50,
    "gpps_pcn": "CENTRAL CAMDEN PCN",
    "cqc_rating": "Good",
    "cqc_url": "http://www.cqc.org.uk/location/1-14142156446",
    "lat": 51.529918,
    "lng": -0.130581
  },
  {
    "ods_code": "F83652",
    "name": "Amwell Group Practice",
    "address": "4 NAOROJI STREET, ISLINGTON, LONDON",
    "postcode": "WC1X 0GB",
    "phone": "020 78372020",
    "gpps_overall_pct": 81.3,
    "gpps_contact_pct": 73.0,
    "gpps_responses": 99,
    "gpps_pcn": "SOUTH ISLINGTON PCN",
    "cqc_rating": "Good",
    "cqc_url": "http://www.cqc.org.uk/location/1-549629977",
    "lat": 51.528045,
    "lng": -0.110792
  },
  {
    "ods_code": "F83658",
    "name": "Belsize Priory Medical Practice (Group)",
    "address": "ABBEY CENTRE, 172A BELSIZE ROAD, LONDON",
    "postcode": "NW6 4BJ",
    "phone": "02073 288200",
    "gpps_overall_pct": 72.4,
    "gpps_contact_pct": 70.7,
    "gpps_responses": 102,
    "gpps_pcn": "CENTRAL HAMPSTEAD PCN",
    "cqc_rating": "Good",
    "cqc_url": "http://www.cqc.org.uk/location/1-16942245042",
    "lat": 51.540533,
    "lng": -0.185234
  },
  {
    "ods_code": "F83665",
    "name": "Swiss Cottage Surgery",
    "address": "2 WINCHESTER MEWS, SWISS COTTAGE, LONDON",
    "postcode": "NW3 3NP",
    "phone": "020 77222772",
    "gpps_overall_pct": 81.7,
    "gpps_contact_pct": 80.8,
    "gpps_responses": 131,
    "gpps_pcn": "CENTRAL CAMDEN PCN",
    "cqc_rating": "Good",
    "cqc_url": "http://www.cqc.org.uk/location/1-547260048",
    "lat": 51.54271,
    "lng": -0.172514
  },
  {
    "ods_code": "F83671",
    "name": "The Beaumont Practice",
    "address": "HORNSEY RISE HEALTH CENTRE, HORNSEY RISE, LONDON",
    "postcode": "N19 3YU",
    "phone": "020 72723155",
    "gpps_overall_pct": 72.6,
    "gpps_contact_pct": 62.0,
    "gpps_responses": 96,
    "gpps_pcn": "NORTH 2 ISLINGTON PCN",
    "cqc_rating": "Good",
    "cqc_url": "http://www.cqc.org.uk/location/1-8577962965",
    "lat": 51.571447,
    "lng": -0.124982
  },
  {
    "ods_code": "F83672",
    "name": "St Philips Medical Centre",
    "address": "TOWER 3, 2ND FLOOR CLEMENTS INN, LONDON",
    "postcode": "WC2A 2AZ",
    "phone": "020 76115131",
    "gpps_overall_pct": 59.1,
    "gpps_contact_pct": 76.5,
    "gpps_responses": 28,
    "gpps_pcn": "SOUTH CAMDEN PCN",
    "cqc_rating": "Good",
    "cqc_url": "http://www.cqc.org.uk/location/1-4499993812",
    "lat": 51.513757,
    "lng": -0.115318
  },
  {
    "ods_code": "F83674",
    "name": "The Junction Medical Practice",
    "address": "244 TUFNELL PARK ROAD, LONDON",
    "postcode": "N19 5EW",
    "phone": "020 72729105",
    "gpps_overall_pct": 82.5,
    "gpps_contact_pct": 76.6,
    "gpps_responses": 106,
    "gpps_pcn": "NORTH 2 ISLINGTON PCN",
    "cqc_rating": "Good",
    "cqc_url": "http://www.cqc.org.uk/location/1-3253845518",
    "lat": 51.55718,
    "lng": -0.136546
  },
  {
    "ods_code": "F83683",
    "name": "Somers Town Medical Centre",
    "address": "CHALTON STREET, LONDON",
    "postcode": "NW1 1HY",
    "phone": "020 73876855",
    "gpps_overall_pct": 57.0,
    "gpps_contact_pct": 56.8,
    "gpps_responses": 106,
    "gpps_pcn": "CENTRAL CAMDEN PCN",
    "cqc_rating": "Good",
    "cqc_url": "http://www.cqc.org.uk/location/1-3983066499",
    "lat": 51.529918,
    "lng": -0.130581
  },
  {
    "ods_code": "F84008",
    "name": "Barton House Group Practice",
    "address": "233 ALBION ROAD, STOKE NEWINGTON, LONDON",
    "postcode": "N16 9JT",
    "phone": "020 72495511",
    "gpps_overall_pct": 78.9,
    "gpps_contact_pct": 59.7,
    "gpps_responses": 90,
    "gpps_pcn": "CLISSOLD PARK PCN",
    "cqc_rating": "Good",
    "cqc_url": "http://www.cqc.org.uk/location/1-566623603",
    "lat": 51.560459,
    "lng": -0.083898
  },
  {
    "ods_code": "F84009",
    "name": "Stratford Village Surgery",
    "address": "50C ROMFORD ROAD, STRATFORD, LONDON",
    "postcode": "E15 4BZ",
    "phone": "020 85344133",
    "gpps_overall_pct": 68.9,
    "gpps_contact_pct": 60.1,
    "gpps_responses": 140,
    "gpps_pcn": "STRATFORD PCN",
    "cqc_rating": "Good",
    "cqc_url": "http://www.cqc.org.uk/location/1-549825936",
    "lat": 51.542097,
    "lng": 0.006388
  },
  {
    "ods_code": "F84013",
    "name": "Stamford Hill Group Practice",
    "address": "2 EGERTON ROAD, STAMFORD HILL, LONDON",
    "postcode": "N16 6UA",
    "phone": "020 88001000",
    "gpps_overall_pct": 70.0,
    "gpps_contact_pct": 55.7,
    "gpps_responses": 128,
    "gpps_pcn": "SPRINGFIELD PARK PCN",
    "cqc_rating": "Good",
    "cqc_url": "http://www.cqc.org.uk/location/1-552175206",
    "lat": 51.573978,
    "lng": -0.071467
  },
  {
    "ods_code": "F84017",
    "name": "Star Lane Medical Centre",
    "address": "121 STAR LANE, CANNING TOWN, LONDON",
    "postcode": "E16 4QH",
    "phone": "020 74764862",
    "gpps_overall_pct": 71.8,
    "gpps_contact_pct": 74.8,
    "gpps_responses": 122,
    "gpps_pcn": "SOUTH ONE NEWHAM PCN",
    "cqc_rating": "Good",
    "cqc_url": "http://www.cqc.org.uk/location/1-547524452",
    "lat": 51.519874,
    "lng": 0.010702
  },
  {
    "ods_code": "F84022",
    "name": "Stratford Health Centre",
    "address": "121-123 THE GROVE, STRATFORD, LONDON",
    "postcode": "E15 1EN",
    "phone": "020 85553936",
    "gpps_overall_pct": 70.9,
    "gpps_contact_pct": 64.8,
    "gpps_responses": 110,
    "gpps_pcn": "NEWHAM NORTH WEST 2 PCN",
    "cqc_rating": "Good",
    "cqc_url": "http://www.cqc.org.uk/location/1-3779814420",
    "lat": 51.544652,
    "lng": 0.004741
  },
  {
    "ods_code": "F84025",
    "name": "Gough Walk Practice",
    "address": "NEWBY PLCE HLTH WELLBEING, 21 NEWBY PLACE, LONDON",
    "postcode": "E14 0EY",
    "phone": "020 75154701",
    "gpps_overall_pct": 59.8,
    "gpps_contact_pct": 52.2,
    "gpps_responses": 109,
    "gpps_pcn": "TOWER HAMLETS NETWORK 7 PCN",
    "cqc_rating": "Good",
    "cqc_url": "http://www.cqc.org.uk/location/1-8081562218",
    "lat": 51.510478,
    "lng": -0.012598
  },
  {
    "ods_code": "F84033",
    "name": "Somerford Grove Practice",
    "address": "SOMERFORD GROVE, STOKE NEWINGTON, LONDON",
    "postcode": "N16 7UA",
    "phone": "02080 492549",
    "gpps_overall_pct": 82.0,
    "gpps_contact_pct": 79.5,
    "gpps_responses": 127,
    "gpps_pcn": "CLISSOLD PARK PCN",
    "cqc_rating": "Good",
    "cqc_url": "http://www.cqc.org.uk/location/1-549465349",
    "lat": 51.553799,
    "lng": -0.072594
  },
  {
    "ods_code": "F84047",
    "name": "Custom House Surgery",
    "address": "16 FREEMASONS ROAD, CANNING TOWN, LONDON",
    "postcode": "E16 3NA",
    "phone": "020 74762255",
    "gpps_overall_pct": 62.4,
    "gpps_contact_pct": 61.7,
    "gpps_responses": 116,
    "gpps_pcn": "SOUTH ONE NEWHAM PCN",
    "cqc_rating": "Requires improvement",
    "cqc_url": "http://www.cqc.org.uk/location/1-541836459",
    "lat": 51.512808,
    "lng": 0.025206
  },
  {
    "ods_code": "F84052",
    "name": "Essex Lodge",
    "address": "GREENGATE STREET, PLAISTOW, LONDON",
    "postcode": "E13 0AS",
    "phone": "020 84724888",
    "gpps_overall_pct": 72.2,
    "gpps_contact_pct": 76.1,
    "gpps_responses": 117,
    "gpps_pcn": "NEWHAM CENTRAL PCN",
    "cqc_rating": "Good",
    "cqc_url": "http://www.cqc.org.uk/location/1-582393811",
    "lat": 51.527917,
    "lng": 0.026713
  },
  {
    "ods_code": "F84053",
    "name": "Greengate Medical Centre",
    "address": "497 BARKING ROAD, PLAISTOW, LONDON",
    "postcode": "E13 8PS",
    "phone": "020 84717160",
    "gpps_overall_pct": 81.7,
    "gpps_contact_pct": 82.6,
    "gpps_responses": 124,
    "gpps_pcn": "NEWHAM CENTRAL 1 PCN",
    "cqc_rating": "Good",
    "cqc_url": "http://www.cqc.org.uk/location/1-544144429",
    "lat": 51.525211,
    "lng": 0.027688
  },
  {
    "ods_code": "F84054",
    "name": "The Limehouse Practice",
    "address": "11 GILL STREET, POPLAR, LONDON",
    "postcode": "E14 8HQ",
    "phone": "020 75152211",
    "gpps_overall_pct": 67.9,
    "gpps_contact_pct": 69.7,
    "gpps_responses": 116,
    "gpps_pcn": "TOWER HAMLETS NETWORK 7 PCN",
    "cqc_rating": "Good",
    "cqc_url": "http://www.cqc.org.uk/location/1-574169355",
    "lat": 51.511254,
    "lng": -0.02872
  },
  {
    "ods_code": "F84062",
    "name": "The Chrisp Street Hth Ctr",
    "address": "100 CHRISP STREET, LONDON",
    "postcode": "E14 6PG",
    "phone": "020 75154860",
    "gpps_overall_pct": 64.2,
    "gpps_contact_pct": 51.3,
    "gpps_responses": 128,
    "gpps_pcn": "TOWER HAMLETS NETWORK 7 PCN",
    "cqc_rating": "Good",
    "cqc_url": "http://www.cqc.org.uk/location/1-537753699",
    "lat": 51.514212,
    "lng": -0.014309
  },
  {
    "ods_code": "F84074",
    "name": "Wordsworth Health Centre",
    "address": "19 WORDSWORTH AVENUE, LONDON",
    "postcode": "E12 6SU",
    "phone": "020 85485960",
    "gpps_overall_pct": 55.1,
    "gpps_contact_pct": 51.8,
    "gpps_responses": 131,
    "gpps_pcn": "NEWHAM NORTH EAST 2 PCN",
    "cqc_rating": "Good",
    "cqc_url": "http://www.cqc.org.uk/location/1-537878483",
    "lat": 51.541576,
    "lng": 0.049009
  },
  {
    "ods_code": "F84077",
    "name": "Newham Vicarage Practice",
    "address": "VICARAGE LANE HEALTH CENTRE, 10 VICARAGE LANE, STRATFORD, LONDON",
    "postcode": "E15 4ES",
    "phone": "020 85362266",
    "gpps_overall_pct": 72.5,
    "gpps_contact_pct": 66.9,
    "gpps_responses": 139,
    "gpps_pcn": "NEWHAM NORTH WEST 2 PCN",
    "cqc_rating": "Good",
    "cqc_url": "http://www.cqc.org.uk/location/1-547934052",
    "lat": 51.541414,
    "lng": 0.01005
  },
  {
    "ods_code": "F84080",
    "name": "Fountayne Road Medical Practice",
    "address": "1A FOUNTAYNE ROAD, LONDON",
    "postcode": "N16 7EA",
    "phone": "020 39280777",
    "gpps_overall_pct": 76.9,
    "gpps_contact_pct": 68.5,
    "gpps_responses": 115,
    "gpps_pcn": "HACKNEY DOWNS PCN",
    "cqc_rating": "Good",
    "cqc_url": "http://www.cqc.org.uk/location/1-549945959",
    "lat": 51.564422,
    "lng": -0.065119
  },
  {
    "ods_code": "F84088",
    "name": "Plashet Road Medical Centre",
    "address": "152 PLASHET ROAD, UPTON PARK, PLAISTOW, LONDON",
    "postcode": "E13 0QT",
    "phone": "020 84720473",
    "gpps_overall_pct": 72.5,
    "gpps_contact_pct": 76.8,
    "gpps_responses": 106,
    "gpps_pcn": "NEWHAM NORTH EAST 1 PCN",
    "cqc_rating": "Good",
    "cqc_url": "http://www.cqc.org.uk/location/1-543805984",
    "lat": 51.537492,
    "lng": 0.03305
  },
  {
    "ods_code": "F84092",
    "name": "Glen Road Medical Centre",
    "address": "1-9 GLEN ROAD, PLAISTOW, LONDON",
    "postcode": "E13 8RU",
    "phone": "020 74763434",
    "gpps_overall_pct": 61.9,
    "gpps_contact_pct": 51.6,
    "gpps_responses": 124,
    "gpps_pcn": "STRATFORD PCN",
    "cqc_rating": "Good",
    "cqc_url": "http://www.cqc.org.uk/location/1-573891997",
    "lat": 51.522222,
    "lng": 0.032557
  },
  {
    "ods_code": "F84111",
    "name": "Abbey Road Medical Practice",
    "address": "28A ABBEY ROAD, LONDON",
    "postcode": "E15 3LT",
    "phone": "020 85342515",
    "gpps_overall_pct": 76.5,
    "gpps_contact_pct": 70.2,
    "gpps_responses": 145,
    "gpps_pcn": "STRATFORD PCN",
    "cqc_rating": "Good",
    "cqc_url": "http://www.cqc.org.uk/location/1-545686588",
    "lat": 51.534785,
    "lng": 0.005908
  },
  {
    "ods_code": "F84115",
    "name": "The Statham Grove Surgery",
    "address": "STATHAM GROVE, STOKE NEWINGTON, LONDON",
    "postcode": "N16 9DP",
    "phone": "020 72544327",
    "gpps_overall_pct": 90.4,
    "gpps_contact_pct": 85.2,
    "gpps_responses": 103,
    "gpps_pcn": "WOODBERRY WETLANDS PCN",
    "cqc_rating": "Good",
    "cqc_url": "http://www.cqc.org.uk/location/1-565793477",
    "lat": 51.557465,
    "lng": -0.089433
  },
  {
    "ods_code": "F84121",
    "name": "E12 Health",
    "address": "30 CHURCH ROAD, MANOR PARK, LONDON",
    "postcode": "E12 6AQ",
    "phone": "020 85537440",
    "gpps_overall_pct": 59.5,
    "gpps_contact_pct": 56.5,
    "gpps_responses": 109,
    "gpps_pcn": "STRATFORD PCN",
    "cqc_rating": "Good",
    "cqc_url": "http://www.cqc.org.uk/location/1-571092727",
    "lat": 51.547786,
    "lng": 0.05386
  },
  {
    "ods_code": "F84124",
    "name": "The Project Surgery",
    "address": "10 LETTSOM WALK, PLAISTOW, LONDON",
    "postcode": "E13 0LN",
    "phone": "020 84725234",
    "gpps_overall_pct": 71.8,
    "gpps_contact_pct": 70.0,
    "gpps_responses": 116,
    "gpps_pcn": "NEWHAM CENTRAL 1 PCN",
    "cqc_rating": "Good",
    "cqc_url": "http://www.cqc.org.uk/location/1-17977901066",
    "lat": 51.532275,
    "lng": 0.020663
  },
  {
    "ods_code": "F84636",
    "name": "The Surgery (Barretts Grove)",
    "address": "6 BARRETTS GROVE, STOKE NEWINGTON, LONDON",
    "postcode": "N16 8AR",
    "phone": "020 72541661",
    "gpps_overall_pct": 84.8,
    "gpps_contact_pct": 81.5,
    "gpps_responses": 112,
    "gpps_pcn": "CLISSOLD PARK PCN",
    "cqc_rating": "Good",
    "cqc_url": "http://www.cqc.org.uk/location/1-566468824",
    "lat": 51.552201,
    "lng": -0.078258
  },
  {
    "ods_code": "F84640",
    "name": "The Neaman Practice",
    "address": "15 HALF MOON COURT, LONDON",
    "postcode": "EC1A 7HF",
    "phone": "020 76009740",
    "gpps_overall_pct": 79.2,
    "gpps_contact_pct": 68.5,
    "gpps_responses": 109,
    "gpps_pcn": "SHOREDITCH PARK PCN",
    "cqc_rating": "Good",
    "cqc_url": "http://www.cqc.org.uk/location/1-571506518",
    "lat": 51.519123,
    "lng": -0.097871
  },
  {
    "ods_code": "F84642",
    "name": "Lucas Avenue Practice",
    "address": "1A LUCAS AVENUE, PLAISTOW, LONDON",
    "postcode": "E13 0QP",
    "phone": "020 84717239",
    "gpps_overall_pct": 67.4,
    "gpps_contact_pct": 57.5,
    "gpps_responses": 91,
    "gpps_pcn": "NEWHAM CENTRAL PCN",
    "cqc_rating": "Good",
    "cqc_url": "http://www.cqc.org.uk/location/1-2781329601",
    "lat": 51.536291,
    "lng": 0.030733
  },
  {
    "ods_code": "F84647",
    "name": "Roserton Street Surgery",
    "address": "THE ISLAND MEDICAL CENTRE, ROSERTON STREET, LONDON",
    "postcode": "E14 3PG",
    "phone": "020 79874231",
    "gpps_overall_pct": 68.9,
    "gpps_contact_pct": 72.1,
    "gpps_responses": 116,
    "gpps_pcn": "TOWER HAMLETS NETWORK 8 PCN",
    "cqc_rating": "Good",
    "cqc_url": "http://www.cqc.org.uk/location/1-551713566",
    "lat": 51.498483,
    "lng": -0.010022
  },
  {
    "ods_code": "F84656",
    "name": "Docklands Medical Centre",
    "address": "100 SPINDRIFT AVENUE, ISLE OF DOGS, LONDON",
    "postcode": "E14 9WU",
    "phone": "020 75371444",
    "gpps_overall_pct": 57.8,
    "gpps_contact_pct": 58.6,
    "gpps_responses": 111,
    "gpps_pcn": "TOWER HAMLETS NETWORK 8 PCN",
    "cqc_rating": "Good",
    "cqc_url": "http://www.cqc.org.uk/location/1-551713757",
    "lat": 51.491152,
    "lng": -0.021117
  },
  {
    "ods_code": "F84658",
    "name": "Sangam Practice",
    "address": "1 TORONTO AVENUE, LONDON",
    "postcode": "E12 5JF",
    "phone": "020 89118378",
    "gpps_overall_pct": 71.5,
    "gpps_contact_pct": 73.6,
    "gpps_responses": 99,
    "gpps_pcn": "NEWHAM NORTH EAST 1 PCN",
    "cqc_rating": "Good",
    "cqc_url": "http://www.cqc.org.uk/location/1-12515324040",
    "lat": 51.554082,
    "lng": 0.055297
  },
  {
    "ods_code": "F84666",
    "name": "The Ruiz Medical Practice",
    "address": "2 ST. LUKE'S SQUARE, CANNING TOWN, LONDON",
    "postcode": "E16 1HT",
    "phone": "020 73666440",
    "gpps_overall_pct": 68.4,
    "gpps_contact_pct": 59.4,
    "gpps_responses": 126,
    "gpps_pcn": "SOUTH ONE NEWHAM PCN",
    "cqc_rating": "Good",
    "cqc_url": "http://www.cqc.org.uk/location/1-557933815",
    "lat": 51.511928,
    "lng": 0.013623
  },
  {
    "ods_code": "F84677",
    "name": "East End Medical Centre",
    "address": "61 PLASHET ROAD, PLAISTOW, LONDON",
    "postcode": "E13 0QA",
    "phone": "020 84708186",
    "gpps_overall_pct": 74.9,
    "gpps_contact_pct": 68.1,
    "gpps_responses": 113,
    "gpps_pcn": "NEWHAM NORTH WEST 2 PCN",
    "cqc_rating": "Good",
    "cqc_url": "http://www.cqc.org.uk/location/1-544067094",
    "lat": 51.537312,
    "lng": 0.025255
  },
  {
    "ods_code": "F84681",
    "name": "Balaam Street Practice",
    "address": "113 BALAAM STREET, PLAISTOW, LONDON",
    "postcode": "E13 8AF",
    "phone": "020 84721238",
    "gpps_overall_pct": 72.3,
    "gpps_contact_pct": 67.3,
    "gpps_responses": 96,
    "gpps_pcn": "NEWHAM CENTRAL PCN",
    "cqc_rating": "Good",
    "cqc_url": "http://www.cqc.org.uk/location/1-13454402963",
    "lat": 51.526725,
    "lng": 0.023834
  },
  {
    "ods_code": "F84686",
    "name": "The Surgery (Cranwich Road)",
    "address": "THE SURGERY, 62 CRANWICH ROAD, LONDON",
    "postcode": "N16 5JF",
    "phone": "020 88022002",
    "gpps_overall_pct": 64.9,
    "gpps_contact_pct": 57.2,
    "gpps_responses": 72,
    "gpps_pcn": "SPRINGFIELD PARK PCN",
    "cqc_rating": "Good",
    "cqc_url": "http://www.cqc.org.uk/location/1-547610610",
    "lat": 51.573659,
    "lng": -0.081626
  },
  {
    "ods_code": "F84694",
    "name": "The Surgery (Brooke Road)",
    "address": "BROOKE ROAD SURGERY, 40-42 BROOKE ROAD, STOKE NEWINGTON, LONDON",
    "postcode": "N16 7LR",
    "phone": "020 72545652",
    "gpps_overall_pct": 88.9,
    "gpps_contact_pct": 84.3,
    "gpps_responses": 121,
    "gpps_pcn": "CLISSOLD PARK PCN",
    "cqc_rating": "Good",
    "cqc_url": "http://www.cqc.org.uk/location/1-571556246",
    "lat": 51.560054,
    "lng": -0.070729
  },
  {
    "ods_code": "F84698",
    "name": "Aberfeldy Practice",
    "address": "ABERFELDY H&W CENTRE, 19 ABERFELDY SQUARE, LONDON",
    "postcode": "E14 0XA",
    "phone": "020 75155622",
    "gpps_overall_pct": 77.9,
    "gpps_contact_pct": 74.8,
    "gpps_responses": 142,
    "gpps_pcn": "TOWER HAMLETS NETWORK 7 PCN",
    "cqc_rating": "Good",
    "cqc_url": "http://www.cqc.org.uk/location/1-20393877634",
    "lat": 51.512639,
    "lng": -0.005312
  },
  {
    "ods_code": "F84710",
    "name": "Island Health",
    "address": "145 EAST FERRY ROAD, ISLE OF DOGS, LONDON",
    "postcode": "E14 3BQ",
    "phone": "020 73631111",
    "gpps_overall_pct": 61.7,
    "gpps_contact_pct": 47.5,
    "gpps_responses": 109,
    "gpps_pcn": "TOWER HAMLETS NETWORK 8 PCN",
    "cqc_rating": "Good",
    "cqc_url": "http://www.cqc.org.uk/location/1-14879683612",
    "lat": 51.495358,
    "lng": -0.013486
  },
  {
    "ods_code": "F84716",
    "name": "The Allerton Road Surgery",
    "address": "34A ALLERTON ROAD, STOKE NEWINGTON, LONDON",
    "postcode": "N16 5UF",
    "phone": "020 88022882",
    "gpps_overall_pct": 74.7,
    "gpps_contact_pct": 74.0,
    "gpps_responses": 108,
    "gpps_pcn": "WOODBERRY WETLANDS PCN",
    "cqc_rating": "Good",
    "cqc_url": "http://www.cqc.org.uk/location/1-1249279161",
    "lat": 51.565726,
    "lng": -0.090357
  },
  {
    "ods_code": "F84729",
    "name": "The Manor Park Practice",
    "address": "778 ROMFORD ROAD, LONDON",
    "postcode": "E12 5JG",
    "phone": "020 84780533",
    "gpps_overall_pct": 71.3,
    "gpps_contact_pct": 67.4,
    "gpps_responses": 113,
    "gpps_pcn": "NEWHAM NORTH EAST 1 PCN",
    "cqc_rating": "Good",
    "cqc_url": "http://www.cqc.org.uk/location/1-2080560501",
    "lat": 51.55393,
    "lng": 0.057339
  },
  {
    "ods_code": "F84730",
    "name": "The Vicarage Lane Surgery",
    "address": "VICARAGE LANE HEALTH CENTRE, 10 VICARAGE LANE, LONDON",
    "postcode": "E15 4ES",
    "phone": "020 85362244",
    "gpps_overall_pct": 62.8,
    "gpps_contact_pct": 55.3,
    "gpps_responses": 115,
    "gpps_pcn": "STRATFORD PCN",
    "cqc_rating": "Good",
    "cqc_url": "http://www.cqc.org.uk/location/1-8578423602",
    "lat": 51.541414,
    "lng": 0.01005
  },
  {
    "ods_code": "F84737",
    "name": "Newham Gp Co-Operative Ooh",
    "address": "BALAAM PARK HEALTH CENTRE, 113 BALAAM STREET, LONDON",
    "postcode": "E13 8AF",
    "phone": "020 75118880",
    "lat": 51.526725,
    "lng": 0.023834
  },
  {
    "ods_code": "F84739",
    "name": "E12 Medical Centre",
    "address": "243 HIGH STREET NORTH, MANOR PARK, LONDON",
    "postcode": "E12 6SJ",
    "phone": "020 84702500",
    "gpps_overall_pct": 81.5,
    "gpps_contact_pct": 75.7,
    "gpps_responses": 108,
    "gpps_pcn": "NEWHAM NORTH EAST 2 PCN",
    "cqc_rating": "Good",
    "cqc_url": "http://www.cqc.org.uk/location/1-496379288",
    "lat": 51.540858,
    "lng": 0.050447
  },
  {
    "ods_code": "F84740",
    "name": "Newham Transitional Practice",
    "address": "30 CHURCH ROAD, THE CENTRE, MANOR PARK, LONDON",
    "postcode": "E12 6AQ",
    "phone": "020 85537460",
    "gpps_overall_pct": 91.6,
    "gpps_contact_pct": 81.5,
    "gpps_responses": 127,
    "gpps_pcn": "STRATFORD PCN",
    "cqc_rating": "Good",
    "cqc_url": "http://www.cqc.org.uk/location/RWK98",
    "lat": 51.547786,
    "lng": 0.05386
  },
  {
    "ods_code": "F84743",
    "name": "Newham Nhs Urgent Care Centre",
    "address": "GLEN ROAD, PLAISTOW, LONDON",
    "postcode": "E13 8SH",
    "phone": "020 73639200",
    "lat": 51.523002,
    "lng": 0.037335
  },
  {
    "ods_code": "F84747",
    "name": "The Barkantine Practice",
    "address": "BARKANTINE CENTRE, 121 WESTFERRY ROAD, LONDON",
    "postcode": "E14 8JH",
    "phone": "020 75104000",
    "gpps_overall_pct": 49.8,
    "gpps_contact_pct": 50.3,
    "gpps_responses": 139,
    "gpps_pcn": "TOWER HAMLETS NETWORK 8 PCN",
    "cqc_rating": "Good",
    "cqc_url": "http://www.cqc.org.uk/location/1-585077196",
    "lat": 51.500807,
    "lng": -0.025698
  },
  {
    "ods_code": "F84749",
    "name": "Carpenters Practice",
    "address": "236-252 HIGH STREET, STRATFORD, LONDON",
    "postcode": "E15 2JA",
    "phone": "020 85348057",
    "gpps_overall_pct": 47.1,
    "gpps_contact_pct": 41.3,
    "gpps_responses": 121,
    "gpps_pcn": "NEWHAM CENTRAL PCN",
    "cqc_rating": "Good",
    "cqc_url": "http://www.cqc.org.uk/location/1-9152464154",
    "lat": 51.537245,
    "lng": -0.003342
  },
  {
    "ods_code": "F84750",
    "name": "Community Dermatology Clinic",
    "address": "63 APPLEBY ROAD, CANNING TOWN, LONDON",
    "postcode": "E16 1LQ",
    "phone": "020 74457000",
    "lat": 51.510992,
    "lng": 0.016277
  },
  {
    "ods_code": "F85007",
    "name": "Lawrence House Surgery",
    "address": "107 PHILIP LANE, TOTTENHAM, LONDON",
    "postcode": "N15 4JR",
    "phone": "020 88016640",
    "gpps_overall_pct": 71.3,
    "gpps_contact_pct": 68.2,
    "gpps_responses": 93,
    "gpps_pcn": "HARINGEY - WELBOURNE PCN",
    "cqc_rating": "Good",
    "cqc_url": "http://www.cqc.org.uk/location/1-592722799",
    "lat": 51.589105,
    "lng": -0.078681
  },
  {
    "ods_code": "F85008",
    "name": "Staunton Group Practice",
    "address": "MORUM HOUSE MEDICAL CTR, 3-5 BOUNDS GREEN ROAD, WOOD GREEN, LONDON",
    "postcode": "N22 8HE",
    "phone": "020 38057300",
    "gpps_overall_pct": 72.0,
    "gpps_contact_pct": 60.2,
    "gpps_responses": 102,
    "gpps_pcn": "HARINGEY - EAST CENTRAL PCN",
    "cqc_rating": "Requires improvement",
    "cqc_url": "http://www.cqc.org.uk/location/1-11910863540",
    "lat": 51.599344,
    "lng": -0.112802
  },
  {
    "ods_code": "F85013",
    "name": "Tynemouth Medical Practice",
    "address": "TYNEMOUTH ROAD, LONDON",
    "postcode": "N15 4RH",
    "phone": "020 88084904",
    "gpps_overall_pct": 76.2,
    "gpps_contact_pct": 70.1,
    "gpps_responses": 106,
    "gpps_pcn": "HARINGEY - WELBOURNE PCN",
    "cqc_rating": "Good",
    "cqc_url": "http://www.cqc.org.uk/location/1-569259821",
    "lat": 51.586254,
    "lng": -0.068306
  },
  {
    "ods_code": "F85017",
    "name": "Charlton House Medical Centre",
    "address": "581 HIGH ROAD, LONDON",
    "postcode": "N17 6SB",
    "phone": "020 88082837",
    "gpps_overall_pct": 90.7,
    "gpps_contact_pct": 91.2,
    "gpps_responses": 124,
    "gpps_pcn": "HARINGEY - NORTH EAST PCN",
    "lat": 51.595442,
    "lng": -0.069202
  },
  {
    "ods_code": "F85019",
    "name": "Morris House Group Practice",
    "address": "LORDSHIP LANE CLINIC, 239 LORDSHIP LANE, LONDON",
    "postcode": "N17 6AA",
    "phone": "02031 433600",
    "gpps_overall_pct": 69.9,
    "gpps_contact_pct": 57.1,
    "gpps_responses": 111,
    "gpps_pcn": "HARINGEY - NORTH EAST PCN",
    "cqc_rating": "Good",
    "cqc_url": "http://www.cqc.org.uk/location/1-583968524",
    "lat": 51.597784,
    "lng": -0.082097
  },
  {
    "ods_code": "F85020",
    "name": "The Woodberry Practice",
    "address": "1 WOODBERRY AVENUE, WINCHMORE HILL, LONDON",
    "postcode": "N21 3LE",
    "phone": "020 88862751",
    "gpps_overall_pct": 91.9,
    "gpps_contact_pct": 92.0,
    "gpps_responses": 100,
    "gpps_pcn": "ENFIELD SOUTH WEST PCN",
    "cqc_rating": "Good",
    "cqc_url": "http://www.cqc.org.uk/location/1-542413793",
    "lat": 51.627253,
    "lng": -0.10036
  },
  {
    "ods_code": "F85028",
    "name": "Bruce Grove Primary Health Care Ctr",
    "address": "463 HIGH ROAD, TOTTENHAM, LONDON",
    "postcode": "N17 6QB",
    "phone": "020 88084710",
    "gpps_overall_pct": 75.4,
    "gpps_contact_pct": 77.6,
    "gpps_responses": 107,
    "gpps_pcn": "HARINGEY - NORTH EAST PCN",
    "cqc_rating": "Requires improvement",
    "cqc_url": "http://www.cqc.org.uk/location/1-550196059",
    "lat": 51.592004,
    "lng": -0.070142
  },
  {
    "ods_code": "F85030",
    "name": "Somerset Gardens Family Health Centre",
    "address": "4 CREIGHTON ROAD, TOTTENHAM, LONDON",
    "postcode": "N17 8NW",
    "phone": "020 82756410",
    "gpps_overall_pct": 68.6,
    "gpps_contact_pct": 64.1,
    "gpps_responses": 106,
    "gpps_pcn": "HARINGEY - NORTH EAST PCN",
    "cqc_rating": "Good",
    "cqc_url": "http://www.cqc.org.uk/location/1-1340509301",
    "lat": 51.60534,
    "lng": -0.073446
  },
  {
    "ods_code": "F85031",
    "name": "Westbury Medical Centre",
    "address": "THE SURGERY, 205 WESTBURY AVENUE, WOOD GREEN, LONDON",
    "postcode": "N22 6RX",
    "phone": "020 88883021",
    "gpps_overall_pct": 73.0,
    "gpps_contact_pct": 72.2,
    "gpps_responses": 128,
    "gpps_pcn": "HARINGEY - NORTH EAST PCN",
    "cqc_rating": "Good",
    "cqc_url": "http://www.cqc.org.uk/location/1-547871991",
    "lat": 51.597178,
    "lng": -0.094006
  },
  {
    "ods_code": "F85032",
    "name": "Southgate",
    "address": "270 CHASE SIDE, SOUTHGATE, LONDON",
    "postcode": "N14 4PR",
    "phone": "020 84409301",
    "gpps_overall_pct": 63.9,
    "gpps_contact_pct": 69.0,
    "gpps_responses": 107,
    "gpps_pcn": "ENFIELD UNITY PCN",
    "cqc_rating": "Good",
    "cqc_url": "http://www.cqc.org.uk/location/1-543875370",
    "lat": 51.640285,
    "lng": -0.142622
  },
  {
    "ods_code": "F85033",
    "name": "Winchmore Hill Practice",
    "address": "808 GREEN LANES, WINCHMORE HILL, LONDON",
    "postcode": "N21 2SA",
    "phone": "020 83505000",
    "gpps_overall_pct": 87.7,
    "gpps_contact_pct": 80.1,
    "gpps_responses": 110,
    "gpps_pcn": "WEST ENFIELD COLLABORATIVE PCN",
    "cqc_rating": "Good",
    "cqc_url": "http://www.cqc.org.uk/location/1-566830480",
    "lat": 51.633095,
    "lng": -0.094075
  },
  {
    "ods_code": "F85034",
    "name": "Arcadian Gardens Surgery",
    "address": "1 ARCADIAN GARDENS, WOOD GREEN, LONDON",
    "postcode": "N22 5AB",
    "phone": "020 88884142",
    "gpps_overall_pct": 67.1,
    "gpps_contact_pct": 74.7,
    "gpps_responses": 108,
    "gpps_pcn": "HARINGEY - NORTH CENTRAL PCN",
    "cqc_rating": "Good",
    "cqc_url": "http://www.cqc.org.uk/location/1-557402877",
    "lat": 51.606729,
    "lng": -0.110748
  },
  {
    "ods_code": "F85035",
    "name": "Highlands Practice",
    "address": "HIGHLANDS HEALTHCARE CENTRE, 3 FLOREY SQUARE, WINCHMORE HILL, LONDON",
    "postcode": "N21 1UJ",
    "phone": "020 83609044",
    "gpps_overall_pct": 78.4,
    "gpps_contact_pct": 65.7,
    "gpps_responses": 86,
    "gpps_pcn": "ENFIELD UNITY PCN",
    "cqc_rating": "Good",
    "cqc_url": "http://www.cqc.org.uk/location/1-545877033",
    "lat": 51.64634,
    "lng": -0.110662
  },
  {
    "ods_code": "F85060",
    "name": "Havergal Surgery",
    "address": "10 HAVERGAL VILLAS, GREEN LANES, TOTTENHAM, LONDON",
    "postcode": "N15 3DY",
    "phone": "020 88886662",
    "gpps_overall_pct": 73.2,
    "gpps_contact_pct": 66.2,
    "gpps_responses": 117,
    "gpps_pcn": "HARINGEY - N15/SOUTH EAST PCN",
    "cqc_rating": "Good",
    "cqc_url": "http://www.cqc.org.uk/location/1-516058275",
    "lat": 51.589197,
    "lng": -0.101991
  },
  {
    "ods_code": "F85063",
    "name": "The Muswell Hill Practice",
    "address": "54 MUSWELL HILL, LONDON",
    "postcode": "N10 3ST",
    "phone": "020 83653303",
    "gpps_overall_pct": 88.3,
    "gpps_contact_pct": 84.1,
    "gpps_responses": 128,
    "gpps_pcn": "HARINGEY - NORTH WEST PCN",
    "cqc_rating": "Outstanding",
    "cqc_url": "http://www.cqc.org.uk/location/1-15036065218",
    "lat": 51.591019,
    "lng": -0.141096
  },
  {
    "ods_code": "F85064",
    "name": "High Road Surgery (Stuart Crescent Hc)",
    "address": "8 STUART CRESCENT, WOOD GREEN, LONDON",
    "postcode": "N22 5NJ",
    "phone": "020 88891115",
    "gpps_overall_pct": 75.5,
    "gpps_contact_pct": 73.3,
    "gpps_responses": 121,
    "gpps_pcn": "HARINGEY - NORTH CENTRAL PCN",
    "cqc_rating": "Good",
    "cqc_url": "http://www.cqc.org.uk/location/1-537627303",
    "lat": 51.600434,
    "lng": -0.110172
  },
  {
    "ods_code": "F85065",
    "name": "Stuart Crescent Medical Practice",
    "address": "8 STUART CRESCENT, LONDON",
    "postcode": "N22 5NJ",
    "phone": "020 36971760",
    "gpps_overall_pct": 75.0,
    "gpps_contact_pct": 70.6,
    "gpps_responses": 114,
    "gpps_pcn": "HARINGEY - NORTH CENTRAL PCN",
    "cqc_rating": "Requires improvement",
    "cqc_url": "http://www.cqc.org.uk/location/1-547802566",
    "lat": 51.600434,
    "lng": -0.110172
  },
  {
    "ods_code": "F85066",
    "name": "Bounds Green Group Practice",
    "address": "THE SURGERY, GORDON ROAD, BOUNDS GREEN, NEW SOUTHGATE, LONDON",
    "postcode": "N11 2PF",
    "phone": "020 88881736",
    "gpps_overall_pct": 70.2,
    "gpps_contact_pct": 71.3,
    "gpps_responses": 120,
    "gpps_pcn": "HARINGEY - NORTH CENTRAL PCN",
    "cqc_rating": "Good",
    "cqc_url": "http://www.cqc.org.uk/location/1-564499987",
    "lat": 51.606559,
    "lng": -0.126468
  },
  {
    "ods_code": "F85071",
    "name": "Fernlea Surgery",
    "address": "114 HIGH ROAD, SOUTH TOTTENHAM, LONDON",
    "postcode": "N15 6JR",
    "phone": "020 88096445",
    "gpps_overall_pct": 85.3,
    "gpps_contact_pct": 75.2,
    "gpps_responses": 126,
    "gpps_pcn": "HARINGEY - WELBOURNE PCN",
    "cqc_rating": "Good",
    "cqc_url": "http://www.cqc.org.uk/location/1-542627206",
    "lat": 51.57854,
    "lng": -0.072761
  },
  {
    "ods_code": "F85072",
    "name": "Grovelands Medical Centre",
    "address": "1 GROVELANDS ROAD, PALMERS GREEN, LONDON",
    "postcode": "N13 4RJ",
    "phone": "020 88824556",
    "gpps_overall_pct": 73.5,
    "gpps_contact_pct": 77.5,
    "gpps_responses": 104,
    "gpps_pcn": "ENFIELD CARE NETWORK PCN",
    "cqc_rating": "Good",
    "cqc_url": "http://www.cqc.org.uk/location/1-547861444",
    "lat": 51.620688,
    "lng": -0.112003
  },
  {
    "ods_code": "F85615",
    "name": "Tottenham Health Centre",
    "address": "759 HIGH ROAD, TOTTENHAM, LONDON",
    "postcode": "N17 8AH",
    "phone": "020 88089891",
    "gpps_overall_pct": 74.4,
    "gpps_contact_pct": 76.4,
    "gpps_responses": 121,
    "gpps_pcn": "HARINGEY - WELBOURNE PCN",
    "cqc_rating": "Requires improvement",
    "cqc_url": "http://www.cqc.org.uk/location/1-549090836",
    "lat": 51.604763,
    "lng": -0.06846
  },
  {
    "ods_code": "F85623",
    "name": "Grove Road Surgery",
    "address": "1 GROVE ROAD, TOTTENHAM, LONDON",
    "postcode": "N15 5HJ",
    "phone": "020 88009781",
    "gpps_overall_pct": 76.4,
    "gpps_contact_pct": 75.1,
    "gpps_responses": 101,
    "gpps_pcn": "HARINGEY - N15/SOUTH EAST PCN",
    "cqc_rating": "Good",
    "cqc_url": "http://www.cqc.org.uk/location/1-496222451",
    "lat": 51.58124,
    "lng": -0.081668
  },
  {
    "ods_code": "F85628",
    "name": "Welbourne Gp Surgery, Welbourne H C",
    "address": "UNIT 1, WALTER TULL HOUSE, MONUMENT WAY, LONDON",
    "postcode": "N17 9QX",
    "phone": "020 88084203",
    "gpps_overall_pct": 69.9,
    "gpps_contact_pct": 78.8,
    "gpps_responses": 93,
    "gpps_pcn": "HARINGEY - WELBOURNE PCN",
    "cqc_rating": "Good",
    "cqc_url": "http://www.cqc.org.uk/location/1-4327653192",
    "lat": 51.589826,
    "lng": -0.064604
  },
  {
    "ods_code": "F85640",
    "name": "Cheshire Road Surgery",
    "address": "22 CHESHIRE ROAD, WOOD GREEN, LONDON",
    "postcode": "N22 8JJ",
    "phone": "020 88888378",
    "gpps_overall_pct": 91.3,
    "gpps_contact_pct": 81.3,
    "gpps_responses": 98,
    "gpps_pcn": "HARINGEY - NORTH CENTRAL PCN",
    "cqc_rating": "Good",
    "cqc_url": "http://www.cqc.org.uk/location/1-2064504368",
    "lat": 51.60719,
    "lng": -0.113675
  },
  {
    "ods_code": "F85642",
    "name": "The North London Health Centre",
    "address": "BROOMFIELD AVENUE, PALMERS GREEN, LONDON",
    "postcode": "N13 4JJ",
    "phone": "020 88863631",
    "gpps_overall_pct": 71.5,
    "gpps_contact_pct": 64.3,
    "gpps_responses": 111,
    "gpps_pcn": "ENFIELD SOUTH WEST PCN",
    "cqc_rating": "Good",
    "cqc_url": "http://www.cqc.org.uk/location/1-520582690",
    "lat": 51.617574,
    "lng": -0.112407
  },
  {
    "ods_code": "F85650",
    "name": "Morecambe Surgery",
    "address": "1 MORECAMBE TERRACE, GREAT CAMBRIDGE ROAD, UPPER EDMONTON, LONDON",
    "postcode": "N18 1LA",
    "phone": "020 88030020",
    "gpps_overall_pct": 70.3,
    "gpps_contact_pct": 67.0,
    "gpps_responses": 102,
    "gpps_pcn": "ENFIELD SOUTH WEST PCN",
    "cqc_rating": "Good",
    "cqc_url": "http://www.cqc.org.uk/location/1-506767813",
    "lat": 51.617723,
    "lng": -0.085518
  },